{
    "year": "2020",
    "players": [
        {
            "name": "Kennedy, Georgina",
            "team": "Harvard",
            "city": "",
            "country": "England",
            "display_location": "England",
            "record": "15-0",
            "team_position": 1,
            "rating": 6.74,
            "lat": 52.5310214,
            "lng": -1.2649062
        },
        {
            "name": "Henley, Amelia",
            "team": "Harvard",
            "city": "Kent",
            "country": "United States",
            "display_location": "Kent, United States",
            "record": "14-0",
            "team_position": 2,
            "rating": 5.63,
            "lat": 33.1665316,
            "lng": -100.7846477
        },
        {
            "name": "Moataz, Hana",
            "team": "Harvard",
            "city": "",
            "country": "United States",
            "display_location": "United States",
            "record": "14-0",
            "team_position": 3,
            "rating": 6.27,
            "lat": 39.7837304,
            "lng": -100.445882
        },
        {
            "name": "Yousry, Amina",
            "team": "Harvard",
            "city": "",
            "country": "Egypt",
            "display_location": "Egypt",
            "record": "10-2",
            "team_position": 4,
            "rating": 6.25,
            "lat": 26.2540493,
            "lng": 29.2675469
        },
        {
            "name": "Evans, Eleonore L",
            "team": "Harvard",
            "city": "Boston",
            "country": "United States",
            "display_location": "Boston, United States",
            "record": "17-0",
            "team_position": 5,
            "rating": 5.43,
            "lat": 42.3554334,
            "lng": -71.060511
        },
        {
            "name": "Chai, Madeleine P.",
            "team": "Harvard",
            "city": "Norwell",
            "country": "United States",
            "display_location": "Norwell, United States",
            "record": "15-2",
            "team_position": 6,
            "rating": 1.5,
            "lat": 42.1617681,
            "lng": -70.7939307
        },
        {
            "name": "Craig, Hannah",
            "team": "Harvard",
            "city": "Calgary",
            "country": "Canada",
            "display_location": "Calgary, Canada",
            "record": "17-0",
            "team_position": 7,
            "rating": 5.93,
            "lat": 51.0456064,
            "lng": -114.057541
        },
        {
            "name": "Coxon, Evie",
            "team": "Harvard",
            "city": "",
            "country": "England",
            "display_location": "England",
            "record": "13-2",
            "team_position": 8,
            "rating": 5.61,
            "lat": 52.5310214,
            "lng": -1.2649062
        },
        {
            "name": "Orcutt, Charlotte",
            "team": "Harvard",
            "city": "Toronto",
            "country": "United States",
            "display_location": "Toronto, United States",
            "record": "15-1",
            "team_position": 9,
            "rating": 5.44,
            "lat": 41.9048584,
            "lng": -90.8640346
        },
        {
            "name": "Steelman, Grace",
            "team": "Harvard",
            "city": "Philadelphia",
            "country": "United States",
            "display_location": "Philadelphia, United States",
            "record": "6-7",
            "team_position": 10,
            "rating": 5.05,
            "lat": 39.9527237,
            "lng": -75.1635262
        },
        {
            "name": "Sun, Brittany Y",
            "team": "Harvard",
            "city": "Titusville",
            "country": "United States",
            "display_location": "Titusville, United States",
            "record": "8-2",
            "team_position": 11,
            "rating": 5.08,
            "lat": 28.6126236,
            "lng": -80.8079545
        },
        {
            "name": "Engstrom, Annika",
            "team": "Harvard",
            "city": "London",
            "country": "England",
            "display_location": "London, England",
            "record": "3-1",
            "team_position": null,
            "rating": 1.5,
            "lat": 51.4893335,
            "lng": -0.14405508452768728
        },
        {
            "name": "Woodward, Harbour",
            "team": "Harvard",
            "city": "Bedford Corners",
            "country": "United States",
            "display_location": "Bedford Corners, United States",
            "record": "4-1",
            "team_position": null,
            "rating": 4.25,
            "lat": 42.05451,
            "lng": -78.3114042
        },
        {
            "name": "Ruggiero, Elle",
            "team": "Princeton",
            "city": "Malvern",
            "country": "United States",
            "display_location": "Malvern, United States",
            "record": "8-8",
            "team_position": 1,
            "rating": 5.54,
            "lat": 41.0024095,
            "lng": -95.5851939
        },
        {
            "name": "El Torky, Raneem",
            "team": "Princeton",
            "city": "Alexandria, Egypt",
            "country": "Egypt",
            "display_location": "Alexandria, Egypt, Egypt",
            "record": "8-8",
            "team_position": 2,
            "rating": 5.73,
            "lat": 51.158435851573564,
            "lng": -1.3315642901875868
        },
        {
            "name": "Leonard, Emme",
            "team": "Princeton",
            "city": "Harrison",
            "country": "United States",
            "display_location": "Harrison, United States",
            "record": "12-3",
            "team_position": 3,
            "rating": 5.51,
            "lat": 32.5233959,
            "lng": -94.3982158
        },
        {
            "name": "Spahr, Caroline",
            "team": "Princeton",
            "city": "Milton",
            "country": "United States",
            "display_location": "Milton, United States",
            "record": "10-5",
            "team_position": 4,
            "rating": 5.69,
            "lat": 42.2501425,
            "lng": -71.065573
        },
        {
            "name": "Toth, Andrea",
            "team": "Princeton",
            "city": "Richmond",
            "country": "Canada",
            "display_location": "Richmond, Canada",
            "record": "12-4",
            "team_position": 5,
            "rating": 5.89,
            "lat": 49.163168,
            "lng": -123.137414
        },
        {
            "name": "Doyle, M. Grace",
            "team": "Princeton",
            "city": "Haverford",
            "country": "United States",
            "display_location": "Haverford, United States",
            "record": "11-0",
            "team_position": 6,
            "rating": 1.5,
            "lat": 40.0131672,
            "lng": -75.2943516
        },
        {
            "name": "Rose, Emily H.",
            "team": "Princeton",
            "city": "Greenwich",
            "country": "United States",
            "display_location": "Greenwich, United States",
            "record": "14-2",
            "team_position": 8,
            "rating": 5.44,
            "lat": 41.0264862,
            "lng": -73.6284598
        },
        {
            "name": "Stephenson, India",
            "team": "Princeton",
            "city": "Greenwich",
            "country": "United States",
            "display_location": "Greenwich, United States",
            "record": "15-1",
            "team_position": 9,
            "rating": 5.64,
            "lat": 41.0264862,
            "lng": -73.6284598
        },
        {
            "name": "Stephenson, Lucy",
            "team": "Princeton",
            "city": "Greenwich",
            "country": "United States",
            "display_location": "Greenwich, United States",
            "record": "8-2",
            "team_position": 11,
            "rating": 5.21,
            "lat": 41.0264862,
            "lng": -73.6284598
        },
        {
            "name": "Rosini, Mia A",
            "team": "Princeton",
            "city": "Washington",
            "country": "United States",
            "display_location": "Washington, United States",
            "record": "4-1",
            "team_position": 12,
            "rating": 1.5,
            "lat": 38.8950368,
            "lng": -77.0365427
        },
        {
            "name": "Goodman, Anna",
            "team": "Princeton",
            "city": "Mosman",
            "country": "Australia",
            "display_location": "Mosman, Australia",
            "record": "0-0",
            "team_position": 13,
            "rating": 4.74,
            "lat": -33.8301355,
            "lng": 151.2447663
        },
        {
            "name": "Beecroft, Lucy",
            "team": "Yale",
            "city": "New York",
            "country": "United States",
            "display_location": "New York, United States",
            "record": "13-2",
            "team_position": 1,
            "rating": 6.08,
            "lat": 40.7127281,
            "lng": -74.0060152
        },
        {
            "name": "Teegan, Helen",
            "team": "Yale",
            "city": "Bellevue",
            "country": "United States",
            "display_location": "Bellevue, United States",
            "record": "11-6",
            "team_position": 2,
            "rating": 5.62,
            "lat": 47.6144219,
            "lng": -122.192337
        },
        {
            "name": "Ross, Elisabeth",
            "team": "Yale",
            "city": "Philadelphia",
            "country": "United States",
            "display_location": "Philadelphia, United States",
            "record": "8-9",
            "team_position": 3,
            "rating": 5.84,
            "lat": 39.9527237,
            "lng": -75.1635262
        },
        {
            "name": "Jefferson, Brianna",
            "team": "Yale",
            "city": "Mississauga",
            "country": "Canada",
            "display_location": "Mississauga, Canada",
            "record": "9-9",
            "team_position": 4,
            "rating": 5.39,
            "lat": 43.5896231,
            "lng": -79.6443879
        },
        {
            "name": "Bhattacharya, Aishwarya",
            "team": "Yale",
            "city": "Mumbai",
            "country": "India",
            "display_location": "Mumbai, India",
            "record": "13-5",
            "team_position": 5,
            "rating": 5.41,
            "lat": 19.08157715,
            "lng": 72.88662753964906
        },
        {
            "name": "Yeung, Gigi",
            "team": "Yale",
            "city": "",
            "country": "Macao",
            "display_location": "Macao",
            "record": "9-7",
            "team_position": 6,
            "rating": 5.78,
            "lat": 22.1757605,
            "lng": 113.5514142
        },
        {
            "name": "Mital, Riya",
            "team": "Yale",
            "city": "West Harrison",
            "country": "United States",
            "display_location": "West Harrison, United States",
            "record": "13-5",
            "team_position": 7,
            "rating": 5.68,
            "lat": 39.2608882,
            "lng": -84.8207849
        },
        {
            "name": "Lazor, Alexis K.",
            "team": "Yale",
            "city": "Westwood",
            "country": "United States",
            "display_location": "Westwood, United States",
            "record": "13-5",
            "team_position": 8,
            "rating": 1.5,
            "lat": 34.0668947,
            "lng": -118.439944
        },
        {
            "name": "Joshi, Nikita",
            "team": "Yale",
            "city": "Mumbai",
            "country": "India",
            "display_location": "Mumbai, India",
            "record": "13-3",
            "team_position": 9,
            "rating": 1.5,
            "lat": 19.08157715,
            "lng": 72.88662753964906
        },
        {
            "name": "Yacobucci, Jessica M",
            "team": "Yale",
            "city": "Greenwich",
            "country": "United States",
            "display_location": "Greenwich, United States",
            "record": "9-3",
            "team_position": 10,
            "rating": 1.5,
            "lat": 41.0264862,
            "lng": -73.6284598
        },
        {
            "name": "Zhukovets, Julia",
            "team": "Yale",
            "city": "Cambridge",
            "country": "United States",
            "display_location": "Cambridge, United States",
            "record": "1-0",
            "team_position": 11,
            "rating": 4.17,
            "lat": 42.3656347,
            "lng": -71.1040018
        },
        {
            "name": "Bhargava, Anika",
            "team": "Yale",
            "city": "West Hartford",
            "country": "United States",
            "display_location": "West Hartford, United States",
            "record": "2-1",
            "team_position": 12,
            "rating": 1.5,
            "lat": 41.7620447,
            "lng": -72.7420399
        },
        {
            "name": "Tomlinson, Molly",
            "team": "Yale",
            "city": "",
            "country": "United States",
            "display_location": "United States",
            "record": "2-0",
            "team_position": 13,
            "rating": 1.5,
            "lat": 39.7837304,
            "lng": -100.445882
        },
        {
            "name": "Weber, Ainsley T",
            "team": "Yale",
            "city": "Arlington",
            "country": "United States",
            "display_location": "Arlington, United States",
            "record": "6-2",
            "team_position": null,
            "rating": 5.07,
            "lat": 32.7355816,
            "lng": -97.1071186
        },
        {
            "name": "Teh, Min Jie",
            "team": "Trinity College",
            "city": "",
            "country": "United States",
            "display_location": "United States",
            "record": "12-5",
            "team_position": 1,
            "rating": 5.88,
            "lat": 39.7837304,
            "lng": -100.445882
        },
        {
            "name": "Salunkhe, Akanksha",
            "team": "Trinity College",
            "city": "Goa",
            "country": "United States",
            "display_location": "Goa, United States",
            "record": "16-4",
            "team_position": 2,
            "rating": 6.18,
            "lat": 44.195357085066874,
            "lng": -68.68483909099439
        },
        {
            "name": "Lopez Dominguez, Luz Sarahi",
            "team": "Trinity College",
            "city": "Mexico",
            "country": "Mexico",
            "display_location": "Mexico, Mexico",
            "record": "14-2",
            "team_position": 3,
            "rating": 5.83,
            "lat": 19.4326296,
            "lng": -99.1331785
        },
        {
            "name": "Raj, Vanessa",
            "team": "Trinity College",
            "city": "Bayan Lepas",
            "country": "Malaysia",
            "display_location": "Bayan Lepas, Malaysia",
            "record": "15-0",
            "team_position": 4,
            "rating": 1.5,
            "lat": 5.2948137,
            "lng": 100.2595968
        },
        {
            "name": "Usenko, Nadiia",
            "team": "Trinity College",
            "city": "Kyiv",
            "country": "Ukraine",
            "display_location": "Kyiv, Ukraine",
            "record": "15-5",
            "team_position": 5,
            "rating": 5.87,
            "lat": 50.4500336,
            "lng": 30.5241361
        },
        {
            "name": "Rarere, Lakeesha",
            "team": "Trinity College",
            "city": "Gold Coast",
            "country": "New Zealand",
            "display_location": "Gold Coast, New Zealand",
            "record": "10-5",
            "team_position": 6,
            "rating": 1.5,
            "lat": -28.0969574,
            "lng": 153.441776
        },
        {
            "name": "Carleke, Nanna",
            "team": "Trinity College",
            "city": "Karlskrona",
            "country": "Sweden",
            "display_location": "Karlskrona, Sweden",
            "record": "14-5",
            "team_position": 7,
            "rating": 5.32,
            "lat": 56.1621073,
            "lng": 15.5866422
        },
        {
            "name": "Bhengra, Ashita",
            "team": "Trinity College",
            "city": "Chennai",
            "country": "United States",
            "display_location": "Chennai, United States",
            "record": "9-2",
            "team_position": 8,
            "rating": 1.5,
            "lat": 39.68668155,
            "lng": -104.90211352602623
        },
        {
            "name": "Taher, Amina",
            "team": "Trinity College",
            "city": "Alexandria",
            "country": "Egypt",
            "display_location": "Alexandria, Egypt",
            "record": "12-6",
            "team_position": 9,
            "rating": 5.0,
            "lat": 31.1991806,
            "lng": 29.8951716
        },
        {
            "name": "Taylor-French, Lily",
            "team": "Trinity College",
            "city": "Rye",
            "country": "United States",
            "display_location": "Rye, United States",
            "record": "16-4",
            "team_position": 10,
            "rating": 5.09,
            "lat": 40.9808209,
            "lng": -73.684294
        },
        {
            "name": "Bakayoko, Zeinab A",
            "team": "Trinity College",
            "city": "New York",
            "country": "United States",
            "display_location": "New York, United States",
            "record": "6-1",
            "team_position": 11,
            "rating": 4.79,
            "lat": 40.7127281,
            "lng": -74.0060152
        },
        {
            "name": "Alam Eldin, Salma T.",
            "team": "Trinity College",
            "city": "Hartford",
            "country": "United States",
            "display_location": "Hartford, United States",
            "record": "0-0",
            "team_position": null,
            "rating": 1.5,
            "lat": 41.764582,
            "lng": -72.6908547
        },
        {
            "name": "Brown, Campbell",
            "team": "Trinity College",
            "city": "Wellesley",
            "country": "United States",
            "display_location": "Wellesley, United States",
            "record": "1-0",
            "team_position": null,
            "rating": 1.5,
            "lat": 42.2964859,
            "lng": -71.2925571
        },
        {
            "name": "Brown, Farran",
            "team": "Trinity College",
            "city": "",
            "country": "United States",
            "display_location": "United States",
            "record": "0-0",
            "team_position": null,
            "rating": 1.5,
            "lat": 39.7837304,
            "lng": -100.445882
        },
        {
            "name": "Brown, Mimi",
            "team": "Trinity College",
            "city": "",
            "country": "United States",
            "display_location": "United States",
            "record": "1-0",
            "team_position": null,
            "rating": 1.5,
            "lat": 39.7837304,
            "lng": -100.445882
        },
        {
            "name": "Chan, Joyce Lynh K",
            "team": "Trinity College",
            "city": "San Diego",
            "country": "United States",
            "display_location": "San Diego, United States",
            "record": "1-0",
            "team_position": null,
            "rating": 4.75,
            "lat": 32.7174202,
            "lng": -117.162772
        },
        {
            "name": "Dawood, Habiba",
            "team": "Trinity College",
            "city": "Cairo",
            "country": "Egypt",
            "display_location": "Cairo, Egypt",
            "record": "11-2",
            "team_position": null,
            "rating": 5.36,
            "lat": 30.0443879,
            "lng": 31.2357257
        },
        {
            "name": "Fitzgerald, Josette H.",
            "team": "Trinity College",
            "city": "Boston",
            "country": "United States",
            "display_location": "Boston, United States",
            "record": "1-0",
            "team_position": null,
            "rating": 1.5,
            "lat": 42.3554334,
            "lng": -71.060511
        },
        {
            "name": "Mohamed, Habiba",
            "team": "Columbia",
            "city": "",
            "country": "Egypt",
            "display_location": "Egypt",
            "record": "9-7",
            "team_position": 1,
            "rating": 1.5,
            "lat": 26.2540493,
            "lng": 29.2675469
        },
        {
            "name": "Kendall, Nicole",
            "team": "Columbia",
            "city": "Newmarket",
            "country": "Canada",
            "display_location": "Newmarket, Canada",
            "record": "10-6",
            "team_position": 2,
            "rating": 5.29,
            "lat": 44.056258,
            "lng": -79.461708
        },
        {
            "name": "McGillicuddy, Erica",
            "team": "Columbia",
            "city": "Toronto",
            "country": "Canada",
            "display_location": "Toronto, Canada",
            "record": "4-12",
            "team_position": 3,
            "rating": 5.52,
            "lat": 43.6534817,
            "lng": -79.3839347
        },
        {
            "name": "Kalgutkar, Jui",
            "team": "Columbia",
            "city": "Mumbai",
            "country": "United States",
            "display_location": "Mumbai, United States",
            "record": "9-7",
            "team_position": 4,
            "rating": 1.5,
            "lat": 28.303957099999998,
            "lng": -81.64215555
        },
        {
            "name": "McVeigh, Ellie",
            "team": "Columbia",
            "city": "",
            "country": "Ireland",
            "display_location": "Ireland",
            "record": "4-12",
            "team_position": 5,
            "rating": 5.15,
            "lat": 52.865196,
            "lng": -7.9794599
        },
        {
            "name": "Cao, Cynthia",
            "team": "Columbia",
            "city": "Richmond",
            "country": "Canada",
            "display_location": "Richmond, Canada",
            "record": "13-5",
            "team_position": 6,
            "rating": 4.66,
            "lat": 49.163168,
            "lng": -123.137414
        },
        {
            "name": "Fox, Bunny K",
            "team": "Columbia",
            "city": "Wellesley",
            "country": "United States",
            "display_location": "Wellesley, United States",
            "record": "6-9",
            "team_position": 7,
            "rating": 5.2,
            "lat": 42.2964859,
            "lng": -71.2925571
        },
        {
            "name": "Pincus, Jane",
            "team": "Columbia",
            "city": "Brooklyn",
            "country": "United States",
            "display_location": "Brooklyn, United States",
            "record": "16-2",
            "team_position": 8,
            "rating": 1.5,
            "lat": 40.6526006,
            "lng": -73.9497211
        },
        {
            "name": "Chen, Doria",
            "team": "Columbia",
            "city": "Wellesley",
            "country": "United States",
            "display_location": "Wellesley, United States",
            "record": "11-6",
            "team_position": 9,
            "rating": 1.5,
            "lat": 42.2964859,
            "lng": -71.2925571
        },
        {
            "name": "Lentz, Elizabeth",
            "team": "Columbia",
            "city": "Philadelphia",
            "country": "United States",
            "display_location": "Philadelphia, United States",
            "record": "2-2",
            "team_position": 10,
            "rating": 5.24,
            "lat": 39.9527237,
            "lng": -75.1635262
        },
        {
            "name": "Masch, Julia",
            "team": "Columbia",
            "city": "Warren",
            "country": "United States",
            "display_location": "Warren, United States",
            "record": "10-4",
            "team_position": 11,
            "rating": 4.41,
            "lat": 41.8119602,
            "lng": -79.2654452
        },
        {
            "name": "Dugel, Brenna L",
            "team": "Columbia",
            "city": "Paradise Valley",
            "country": "United States",
            "display_location": "Paradise Valley, United States",
            "record": "2-0",
            "team_position": null,
            "rating": 1.5,
            "lat": 33.5428006,
            "lng": -111.9556001
        },
        {
            "name": "Dugel, Tara A",
            "team": "Columbia",
            "city": "Paradise Valley",
            "country": "United States",
            "display_location": "Paradise Valley, United States",
            "record": "2-0",
            "team_position": null,
            "rating": 1.5,
            "lat": 33.5428006,
            "lng": -111.9556001
        },
        {
            "name": "Lenfest, Alexa L.",
            "team": "Columbia",
            "city": "Bryn Mawr",
            "country": "United States",
            "display_location": "Bryn Mawr, United States",
            "record": "0-0",
            "team_position": null,
            "rating": 4.51,
            "lat": 40.0177617,
            "lng": -75.310842
        },
        {
            "name": "Sharma, Pranjali",
            "team": "Columbia",
            "city": "Pune",
            "country": "India",
            "display_location": "Pune, India",
            "record": "3-0",
            "team_position": null,
            "rating": 1.5,
            "lat": 18.5213738,
            "lng": 73.8545071
        },
        {
            "name": "Soper, Caroline",
            "team": "Columbia",
            "city": "Wallingford",
            "country": "United States",
            "display_location": "Wallingford, United States",
            "record": "2-0",
            "team_position": null,
            "rating": 1.5,
            "lat": 41.4570418,
            "lng": -72.8231552
        },
        {
            "name": "Wagenmans, Elena",
            "team": "Stanford",
            "city": "Seattle",
            "country": "United States",
            "display_location": "Seattle, United States",
            "record": "5-8",
            "team_position": 1,
            "rating": 5.48,
            "lat": 47.6038321,
            "lng": -122.330062
        },
        {
            "name": "Wong, Casey S",
            "team": "Stanford",
            "city": "Ruxton",
            "country": "United States",
            "display_location": "Ruxton, United States",
            "record": "5-8",
            "team_position": 2,
            "rating": 5.48,
            "lat": 39.3980371,
            "lng": -76.6448576
        },
        {
            "name": "Ong, Cassandra",
            "team": "Stanford",
            "city": "Fremont",
            "country": "United States",
            "display_location": "Fremont, United States",
            "record": "12-2",
            "team_position": 3,
            "rating": 5.92,
            "lat": 37.5482697,
            "lng": -121.988571
        },
        {
            "name": "Neave, Caroline Q.",
            "team": "Stanford",
            "city": "Harrison",
            "country": "United States",
            "display_location": "Harrison, United States",
            "record": "12-2",
            "team_position": 4,
            "rating": 1.5,
            "lat": 32.5233959,
            "lng": -94.3982158
        },
        {
            "name": "Chemtob, Chloe M.",
            "team": "Stanford",
            "city": "Winter Park",
            "country": "United States",
            "display_location": "Winter Park, United States",
            "record": "9-5",
            "team_position": 5,
            "rating": 1.5,
            "lat": 28.5977707,
            "lng": -81.3510264
        },
        {
            "name": "Gondi, Amita",
            "team": "Stanford",
            "city": "Stanford",
            "country": "United States",
            "display_location": "Stanford, United States",
            "record": "9-5",
            "team_position": 6,
            "rating": 1.5,
            "lat": 37.427467,
            "lng": -122.1702445
        },
        {
            "name": "Love, Juliette E",
            "team": "Stanford",
            "city": "San Carlos",
            "country": "United States",
            "display_location": "San Carlos, United States",
            "record": "7-7",
            "team_position": 7,
            "rating": 1.5,
            "lat": 37.504936,
            "lng": -122.261823
        },
        {
            "name": "Moadel, Samantha",
            "team": "Stanford",
            "city": "Old Westbury",
            "country": "United States",
            "display_location": "Old Westbury, United States",
            "record": "5-9",
            "team_position": 8,
            "rating": 1.5,
            "lat": 40.7887113,
            "lng": -73.5995717
        },
        {
            "name": "Aube, Haley C.",
            "team": "Stanford",
            "city": "Rye",
            "country": "United States",
            "display_location": "Rye, United States",
            "record": "5-5",
            "team_position": 9,
            "rating": 1.5,
            "lat": 40.9808209,
            "lng": -73.684294
        },
        {
            "name": "gillette, julia",
            "team": "Stanford",
            "city": "Lake Forest",
            "country": "United States",
            "display_location": "Lake Forest, United States",
            "record": "3-11",
            "team_position": 10,
            "rating": 1.5,
            "lat": 42.2586461,
            "lng": -87.8407055
        },
        {
            "name": "Lee, Sun Woo",
            "team": "Stanford",
            "city": "",
            "country": "United States",
            "display_location": "United States",
            "record": "2-2",
            "team_position": 11,
            "rating": 1.5,
            "lat": 39.7837304,
            "lng": -100.445882
        },
        {
            "name": "McCall, Avery",
            "team": "Stanford",
            "city": "Winnetka",
            "country": "United States",
            "display_location": "Winnetka, United States",
            "record": "0-0",
            "team_position": null,
            "rating": 1.5,
            "lat": 42.1080703,
            "lng": -87.7365286
        },
        {
            "name": "Tyma, Karina",
            "team": "Drexel",
            "city": "Bristol",
            "country": "Poland",
            "display_location": "Bristol, Poland",
            "record": "10-7",
            "team_position": 1,
            "rating": 5.75,
            "lat": 52.172452239875405,
            "lng": 20.805815732164948
        },
        {
            "name": "Bushma, Alina",
            "team": "Drexel",
            "city": "",
            "country": "Ukraine",
            "display_location": "Ukraine",
            "record": "15-2",
            "team_position": 2,
            "rating": 6.17,
            "lat": 49.4871968,
            "lng": 31.2718321
        },
        {
            "name": "Hughes, Anna",
            "team": "Drexel",
            "city": "Philadelphia",
            "country": "United States",
            "display_location": "Philadelphia, United States",
            "record": "10-8",
            "team_position": 3,
            "rating": 4.87,
            "lat": 39.9527237,
            "lng": -75.1635262
        },
        {
            "name": "Blatt, Hannah",
            "team": "Drexel",
            "city": "Winnipeg",
            "country": "Canada",
            "display_location": "Winnipeg, Canada",
            "record": "9-9",
            "team_position": 4,
            "rating": 5.35,
            "lat": 49.8955367,
            "lng": -97.1384584
        },
        {
            "name": "Prokes, Ona",
            "team": "Drexel",
            "city": "Philadelphia",
            "country": "United States",
            "display_location": "Philadelphia, United States",
            "record": "9-9",
            "team_position": 5,
            "rating": 1.5,
            "lat": 39.9527237,
            "lng": -75.1635262
        },
        {
            "name": "Richards, Ciara",
            "team": "Drexel",
            "city": "",
            "country": "England",
            "display_location": "England",
            "record": "10-8",
            "team_position": 6,
            "rating": 5.18,
            "lat": 52.5310214,
            "lng": -1.2649062
        },
        {
            "name": "Herring, Brooke",
            "team": "Drexel",
            "city": "Philadelphia",
            "country": "United States",
            "display_location": "Philadelphia, United States",
            "record": "10-8",
            "team_position": 7,
            "rating": 5.51,
            "lat": 39.9527237,
            "lng": -75.1635262
        },
        {
            "name": "Ryan, Stephanie",
            "team": "Drexel",
            "city": "",
            "country": "United States",
            "display_location": "United States",
            "record": "10-8",
            "team_position": 8,
            "rating": 1.5,
            "lat": 39.7837304,
            "lng": -100.445882
        },
        {
            "name": "Varma, Lara",
            "team": "Drexel",
            "city": "Cos Cob",
            "country": "United States",
            "display_location": "Cos Cob, United States",
            "record": "4-9",
            "team_position": 9,
            "rating": 5.04,
            "lat": 41.0334305,
            "lng": -73.5995698
        },
        {
            "name": "Cummings, Katerina",
            "team": "Drexel",
            "city": "Weston",
            "country": "United States",
            "display_location": "Weston, United States",
            "record": "7-10",
            "team_position": 10,
            "rating": 4.74,
            "lat": 26.1003392,
            "lng": -80.399513
        },
        {
            "name": "MacGillivray, Emma",
            "team": "Drexel",
            "city": "Waverley",
            "country": "Canada",
            "display_location": "Waverley, Canada",
            "record": "6-5",
            "team_position": 11,
            "rating": 4.51,
            "lat": 49.2812969,
            "lng": -106.6396015
        },
        {
            "name": "Castelli, Catie",
            "team": "Drexel",
            "city": "Devon",
            "country": "United States",
            "display_location": "Devon, United States",
            "record": "0-0",
            "team_position": null,
            "rating": 1.5,
            "lat": 40.0473603,
            "lng": -75.4229511
        },
        {
            "name": "Lawrence, Rose",
            "team": "Drexel",
            "city": "Haverford",
            "country": "United States",
            "display_location": "Haverford, United States",
            "record": "1-3",
            "team_position": null,
            "rating": 4.36,
            "lat": 40.0131672,
            "lng": -75.2943516
        },
        {
            "name": "Low, Rebecca",
            "team": "Drexel",
            "city": "",
            "country": "United States",
            "display_location": "United States",
            "record": "4-0",
            "team_position": null,
            "rating": 1.5,
            "lat": 39.7837304,
            "lng": -100.445882
        },
        {
            "name": "Specter, Hatti",
            "team": "Drexel",
            "city": "Gladwyne",
            "country": "United States",
            "display_location": "Gladwyne, United States",
            "record": "6-1",
            "team_position": null,
            "rating": 4.69,
            "lat": 40.0397304,
            "lng": -75.2791788
        },
        {
            "name": "Davis, Jess",
            "team": "Pennsylvania",
            "city": "New York",
            "country": "United States",
            "display_location": "New York, United States",
            "record": "5-11",
            "team_position": 1,
            "rating": 5.64,
            "lat": 40.7127281,
            "lng": -74.0060152
        },
        {
            "name": "Tamer, Jamila",
            "team": "Pennsylvania",
            "city": "Cairo",
            "country": "Egypt",
            "display_location": "Cairo, Egypt",
            "record": "6-9",
            "team_position": 2,
            "rating": 5.58,
            "lat": 30.0443879,
            "lng": 31.2357257
        },
        {
            "name": "Buchholz, Julia D",
            "team": "Pennsylvania",
            "city": "Flourtown",
            "country": "United States",
            "display_location": "Flourtown, United States",
            "record": "11-5",
            "team_position": 3,
            "rating": 1.5,
            "lat": 40.1034436,
            "lng": -75.2123995
        },
        {
            "name": "Manning, Ashley",
            "team": "Pennsylvania",
            "city": "Rye",
            "country": "United States",
            "display_location": "Rye, United States",
            "record": "9-7",
            "team_position": 4,
            "rating": 5.44,
            "lat": 40.9808209,
            "lng": -73.684294
        },
        {
            "name": "Tamer, Amina",
            "team": "Pennsylvania",
            "city": "",
            "country": "Egypt",
            "display_location": "Egypt",
            "record": "13-3",
            "team_position": 5,
            "rating": 5.23,
            "lat": 26.2540493,
            "lng": 29.2675469
        },
        {
            "name": "Sharma, Navmi",
            "team": "Pennsylvania",
            "city": "Mumbai",
            "country": "India",
            "display_location": "Mumbai, India",
            "record": "10-6",
            "team_position": 6,
            "rating": 5.42,
            "lat": 19.08157715,
            "lng": 72.88662753964906
        },
        {
            "name": "Stanley, Lindsay H.",
            "team": "Pennsylvania",
            "city": "Summit",
            "country": "United States",
            "display_location": "Summit, United States",
            "record": "7-9",
            "team_position": 7,
            "rating": 4.54,
            "lat": 41.1457902,
            "lng": -81.5333603
        },
        {
            "name": "Park, Eujung G",
            "team": "Pennsylvania",
            "city": "Lutherville",
            "country": "United States",
            "display_location": "Lutherville, United States",
            "record": "6-10",
            "team_position": 8,
            "rating": 5.18,
            "lat": 39.423629950000006,
            "lng": -76.62091509974786
        },
        {
            "name": "Scott, Haley V.",
            "team": "Pennsylvania",
            "city": "Riverside",
            "country": "United States",
            "display_location": "Riverside, United States",
            "record": "10-4",
            "team_position": 9,
            "rating": 1.5,
            "lat": 33.9824949,
            "lng": -117.374238
        },
        {
            "name": "Windreich, Nicole",
            "team": "Pennsylvania",
            "city": "Greenwich",
            "country": "United States",
            "display_location": "Greenwich, United States",
            "record": "7-6",
            "team_position": 10,
            "rating": 1.5,
            "lat": 41.0264862,
            "lng": -73.6284598
        },
        {
            "name": "Brody, Meg",
            "team": "Pennsylvania",
            "city": "",
            "country": "United States",
            "display_location": "United States",
            "record": "1-0",
            "team_position": null,
            "rating": 1.5,
            "lat": 39.7837304,
            "lng": -100.445882
        },
        {
            "name": "Frantz, Margaret",
            "team": "Pennsylvania",
            "city": "Bala Cynwyd",
            "country": "United States",
            "display_location": "Bala Cynwyd, United States",
            "record": "1-0",
            "team_position": null,
            "rating": 1.5,
            "lat": 40.0076125,
            "lng": -75.2340695
        },
        {
            "name": "Kearns, Clare",
            "team": "Pennsylvania",
            "city": "Providence",
            "country": "United States",
            "display_location": "Providence, United States",
            "record": "1-1",
            "team_position": null,
            "rating": 4.55,
            "lat": 41.8239891,
            "lng": -71.4128343
        },
        {
            "name": "Sharpe, Alexandra",
            "team": "Pennsylvania",
            "city": "",
            "country": "United States",
            "display_location": "United States",
            "record": "0-0",
            "team_position": null,
            "rating": 1.5,
            "lat": 39.7837304,
            "lng": -100.445882
        },
        {
            "name": "Yu, Maggie J",
            "team": "Pennsylvania",
            "city": "Fremont",
            "country": "United States",
            "display_location": "Fremont, United States",
            "record": "0-0",
            "team_position": null,
            "rating": 1.5,
            "lat": 37.5482697,
            "lng": -121.988571
        },
        {
            "name": "Jinks, Emma",
            "team": "Virginia",
            "city": "Stratford",
            "country": "Canada",
            "display_location": "Stratford, Canada",
            "record": "12-9",
            "team_position": 1,
            "rating": 5.37,
            "lat": 43.3700899,
            "lng": -80.9818016
        },
        {
            "name": "Moya, Maria",
            "team": "Virginia",
            "city": "Ambato",
            "country": "United States",
            "display_location": "Ambato, United States",
            "record": "13-7",
            "team_position": 2,
            "rating": 5.77,
            "lat": 40.7032549,
            "lng": -73.9086975
        },
        {
            "name": "Maxwell, Sydney",
            "team": "Virginia",
            "city": "Toronto",
            "country": "Canada",
            "display_location": "Toronto, Canada",
            "record": "12-8",
            "team_position": 3,
            "rating": 5.31,
            "lat": 43.6534817,
            "lng": -79.3839347
        },
        {
            "name": "Haywood, Amanda D.",
            "team": "Virginia",
            "city": "Bridgetown",
            "country": "Barbados",
            "display_location": "Bridgetown, Barbados",
            "record": "11-9",
            "team_position": 4,
            "rating": 5.1,
            "lat": 13.0977832,
            "lng": -59.6184184
        },
        {
            "name": "Thompson, Julia W",
            "team": "Virginia",
            "city": "Philadelphia",
            "country": "United States",
            "display_location": "Philadelphia, United States",
            "record": "10-5",
            "team_position": 5,
            "rating": 4.83,
            "lat": 39.9527237,
            "lng": -75.1635262
        },
        {
            "name": "Woodworth, Emily",
            "team": "Virginia",
            "city": "Weston",
            "country": "United States",
            "display_location": "Weston, United States",
            "record": "14-6",
            "team_position": 6,
            "rating": 4.88,
            "lat": 26.1003392,
            "lng": -80.399513
        },
        {
            "name": "Curran, Julia A",
            "team": "Virginia",
            "city": "Bronxville",
            "country": "United States",
            "display_location": "Bronxville, United States",
            "record": "15-3",
            "team_position": 7,
            "rating": 5.05,
            "lat": 40.9381544,
            "lng": -73.8320784
        },
        {
            "name": "Seymour, Grace",
            "team": "Virginia",
            "city": "Brooklyn",
            "country": "United States",
            "display_location": "Brooklyn, United States",
            "record": "12-2",
            "team_position": 8,
            "rating": 5.13,
            "lat": 40.6526006,
            "lng": -73.9497211
        },
        {
            "name": "Baldwin, Caroline C",
            "team": "Virginia",
            "city": "Rye",
            "country": "United States",
            "display_location": "Rye, United States",
            "record": "11-2",
            "team_position": 9,
            "rating": 5.1,
            "lat": 40.9808209,
            "lng": -73.684294
        },
        {
            "name": "Doss, Sarah R.",
            "team": "Virginia",
            "city": "Richmond",
            "country": "United States",
            "display_location": "Richmond, United States",
            "record": "10-2",
            "team_position": 10,
            "rating": 4.75,
            "lat": 37.5385087,
            "lng": -77.43428
        },
        {
            "name": "Arya, Tara",
            "team": "Virginia",
            "city": "Hartford",
            "country": "United States",
            "display_location": "Hartford, United States",
            "record": "12-4",
            "team_position": 11,
            "rating": 1.5,
            "lat": 41.764582,
            "lng": -72.6908547
        },
        {
            "name": "Veiga de Almeida, Giovanna",
            "team": "Virginia",
            "city": "Charlottesville",
            "country": "United States",
            "display_location": "Charlottesville, United States",
            "record": "7-3",
            "team_position": 12,
            "rating": 5.1,
            "lat": 38.029306,
            "lng": -78.4766781
        },
        {
            "name": "Lo, Lois E.",
            "team": "Virginia",
            "city": "Lakeville",
            "country": "Hong Kong",
            "display_location": "Lakeville, Hong Kong",
            "record": "6-3",
            "team_position": 14,
            "rating": 1.5,
            "lat": 22.350627,
            "lng": 114.1849161
        },
        {
            "name": "Ezratty, Isabelle",
            "team": "Virginia",
            "city": "Greenwich",
            "country": "United States",
            "display_location": "Greenwich, United States",
            "record": "3-0",
            "team_position": 15,
            "rating": 1.5,
            "lat": 41.0264862,
            "lng": -73.6284598
        },
        {
            "name": "Blasberg, Anne",
            "team": "Dartmouth College",
            "city": "Boston",
            "country": "United States",
            "display_location": "Boston, United States",
            "record": "2-13",
            "team_position": 1,
            "rating": 1.5,
            "lat": 42.3554334,
            "lng": -71.060511
        },
        {
            "name": "Supattapone, Emma Y",
            "team": "Dartmouth College",
            "city": "Hanover",
            "country": "United States",
            "display_location": "Hanover, United States",
            "record": "6-9",
            "team_position": 2,
            "rating": 5.45,
            "lat": 43.7023545,
            "lng": -72.2892164
        },
        {
            "name": "Brownell, Jesse S.",
            "team": "Dartmouth College",
            "city": "Belmont",
            "country": "United States",
            "display_location": "Belmont, United States",
            "record": "10-4",
            "team_position": 3,
            "rating": 5.4,
            "lat": 40.0057737,
            "lng": -81.0097516
        },
        {
            "name": "Aube, Claire E.",
            "team": "Dartmouth College",
            "city": "Rye",
            "country": "United States",
            "display_location": "Rye, United States",
            "record": "10-5",
            "team_position": 4,
            "rating": 5.44,
            "lat": 40.9808209,
            "lng": -73.684294
        },
        {
            "name": "Gozigian, Ellie",
            "team": "Dartmouth College",
            "city": "Boston",
            "country": "United States",
            "display_location": "Boston, United States",
            "record": "5-10",
            "team_position": 5,
            "rating": 4.85,
            "lat": 42.3554334,
            "lng": -71.060511
        },
        {
            "name": "Mactaggart, Emma C.",
            "team": "Dartmouth College",
            "city": "Greenwich",
            "country": "United States",
            "display_location": "Greenwich, United States",
            "record": "6-8",
            "team_position": 6,
            "rating": 5.04,
            "lat": 41.0264862,
            "lng": -73.6284598
        },
        {
            "name": "Bank, Brynn",
            "team": "Dartmouth College",
            "city": "Princeton",
            "country": "United States",
            "display_location": "Princeton, United States",
            "record": "4-7",
            "team_position": 7,
            "rating": 1.5,
            "lat": 40.3496953,
            "lng": -74.6597376
        },
        {
            "name": "Reiss, Sandra C",
            "team": "Dartmouth College",
            "city": "Fairfield",
            "country": "United States",
            "display_location": "Fairfield, United States",
            "record": "8-6",
            "team_position": 8,
            "rating": 4.52,
            "lat": 39.7886111,
            "lng": -82.6418883
        },
        {
            "name": "Potter, Julia R.",
            "team": "Dartmouth College",
            "city": "Baltimore",
            "country": "United States",
            "display_location": "Baltimore, United States",
            "record": "8-6",
            "team_position": 9,
            "rating": 1.5,
            "lat": 39.2908816,
            "lng": -76.610759
        },
        {
            "name": "Mollenkopf, Caroline L.",
            "team": "Dartmouth College",
            "city": "Pittsford",
            "country": "United States",
            "display_location": "Pittsford, United States",
            "record": "12-2",
            "team_position": 10,
            "rating": 4.9,
            "lat": 43.090959,
            "lng": -77.515298
        },
        {
            "name": "Gildea, Darden",
            "team": "Dartmouth College",
            "city": "Stevenson",
            "country": "United States",
            "display_location": "Stevenson, United States",
            "record": "3-3",
            "team_position": 11,
            "rating": 4.86,
            "lat": 34.8686934,
            "lng": -85.83942
        },
        {
            "name": "Anwar, Junnat",
            "team": "Dartmouth College",
            "city": "Boston",
            "country": "United States",
            "display_location": "Boston, United States",
            "record": "0-0",
            "team_position": null,
            "rating": 1.5,
            "lat": 42.3554334,
            "lng": -71.060511
        },
        {
            "name": "Gish, Olivia",
            "team": "Dartmouth College",
            "city": "New York",
            "country": "United States",
            "display_location": "New York, United States",
            "record": "0-0",
            "team_position": null,
            "rating": 1.5,
            "lat": 40.7127281,
            "lng": -74.0060152
        },
        {
            "name": "Herman, Nina",
            "team": "Dartmouth College",
            "city": "Seattle",
            "country": "United States",
            "display_location": "Seattle, United States",
            "record": "1-0",
            "team_position": null,
            "rating": 4.3,
            "lat": 47.6038321,
            "lng": -122.330062
        },
        {
            "name": "Patel, Neeya D",
            "team": "Dartmouth College",
            "city": "Atlanta",
            "country": "United States",
            "display_location": "Atlanta, United States",
            "record": "1-0",
            "team_position": null,
            "rating": 4.91,
            "lat": 33.7489924,
            "lng": -84.3902644
        },
        {
            "name": "Subramaniam, Sivasangari",
            "team": "Cornell",
            "city": "Alor Setar",
            "country": "Malaysia",
            "display_location": "Alor Setar, Malaysia",
            "record": "15-1",
            "team_position": 1,
            "rating": 6.52,
            "lat": 6.1231908,
            "lng": 100.3683962
        },
        {
            "name": "Zelov, Lily",
            "team": "Cornell",
            "city": "Haverford",
            "country": "United States",
            "display_location": "Haverford, United States",
            "record": "8-10",
            "team_position": 2,
            "rating": 5.16,
            "lat": 40.0131672,
            "lng": -75.2943516
        },
        {
            "name": "Gallagher, Colby",
            "team": "Cornell",
            "city": "Haverford",
            "country": "United States",
            "display_location": "Haverford, United States",
            "record": "4-13",
            "team_position": 3,
            "rating": 1.5,
            "lat": 40.0131672,
            "lng": -75.2943516
        },
        {
            "name": "Miles, Madison",
            "team": "Cornell",
            "city": "New York",
            "country": "United States",
            "display_location": "New York, United States",
            "record": "8-10",
            "team_position": 4,
            "rating": 4.58,
            "lat": 40.7127281,
            "lng": -74.0060152
        },
        {
            "name": "Delisser, Mimi G.",
            "team": "Cornell",
            "city": "Bryn Mawr",
            "country": "United States",
            "display_location": "Bryn Mawr, United States",
            "record": "3-9",
            "team_position": 5,
            "rating": 1.5,
            "lat": 40.0177617,
            "lng": -75.310842
        },
        {
            "name": "Shatzman, Alexis",
            "team": "Cornell",
            "city": "Newtown Square",
            "country": "United States",
            "display_location": "Newtown Square, United States",
            "record": "7-10",
            "team_position": 6,
            "rating": 5.13,
            "lat": 39.9868117,
            "lng": -75.4007633
        },
        {
            "name": "Stoltz, McKenna",
            "team": "Cornell",
            "city": "Bronxville",
            "country": "United States",
            "display_location": "Bronxville, United States",
            "record": "10-7",
            "team_position": 7,
            "rating": 4.75,
            "lat": 40.9381544,
            "lng": -73.8320784
        },
        {
            "name": "Martin, Lucy",
            "team": "Cornell",
            "city": "Brooklyn",
            "country": "United States",
            "display_location": "Brooklyn, United States",
            "record": "8-9",
            "team_position": 8,
            "rating": 1.5,
            "lat": 40.6526006,
            "lng": -73.9497211
        },
        {
            "name": "LaDow, Ania",
            "team": "Cornell",
            "city": "Evergreen",
            "country": "United States",
            "display_location": "Evergreen, United States",
            "record": "8-9",
            "team_position": 9,
            "rating": 5.06,
            "lat": 31.4334994,
            "lng": -86.9569176
        },
        {
            "name": "Krishnamurthy, Mia",
            "team": "Cornell",
            "city": "Westport",
            "country": "United States",
            "display_location": "Westport, United States",
            "record": "8-9",
            "team_position": 10,
            "rating": 5.0,
            "lat": 41.1414855,
            "lng": -73.3578955
        },
        {
            "name": "Bednar, Sydney C.",
            "team": "Cornell",
            "city": "Greenwich",
            "country": "United States",
            "display_location": "Greenwich, United States",
            "record": "3-1",
            "team_position": 11,
            "rating": 4.66,
            "lat": 41.0264862,
            "lng": -73.6284598
        },
        {
            "name": "Chatrathi, Samira G.",
            "team": "Cornell",
            "city": "Clarksville",
            "country": "United States",
            "display_location": "Clarksville, United States",
            "record": "4-3",
            "team_position": 12,
            "rating": 4.63,
            "lat": 36.5277607,
            "lng": -87.3588703
        },
        {
            "name": "Scherl, Adinah",
            "team": "Cornell",
            "city": "Englewood",
            "country": "United States",
            "display_location": "Englewood, United States",
            "record": "2-0",
            "team_position": 13,
            "rating": 1.5,
            "lat": 40.8929329,
            "lng": -73.9726508
        },
        {
            "name": "Huchro, Victoria B.",
            "team": "Cornell",
            "city": "Scarborough",
            "country": "United States",
            "display_location": "Scarborough, United States",
            "record": "0-0",
            "team_position": null,
            "rating": 4.72,
            "lat": 43.5901655,
            "lng": -70.334505
        },
        {
            "name": "Tan, Stephanie",
            "team": "Cornell",
            "city": "Short Hills",
            "country": "United States",
            "display_location": "Short Hills, United States",
            "record": "0-0",
            "team_position": null,
            "rating": 1.5,
            "lat": 40.7478786,
            "lng": -74.3254271
        },
        {
            "name": "Jacobs, Alexa",
            "team": "Brown",
            "city": "Boston",
            "country": "United States",
            "display_location": "Boston, United States",
            "record": "7-10",
            "team_position": 1,
            "rating": 5.18,
            "lat": 42.3554334,
            "lng": -71.060511
        },
        {
            "name": "Dichter, Abigail",
            "team": "Brown",
            "city": "Wayne",
            "country": "United States",
            "display_location": "Wayne, United States",
            "record": "3-12",
            "team_position": 3,
            "rating": 5.01,
            "lat": 41.6264414,
            "lng": -75.3045103
        },
        {
            "name": "Benstock, Danielle",
            "team": "Brown",
            "city": "Wynnewood",
            "country": "United States",
            "display_location": "Wynnewood, United States",
            "record": "8-8",
            "team_position": 4,
            "rating": 4.79,
            "lat": 40.0028514,
            "lng": -75.2707469
        },
        {
            "name": "Kearns, Isabella",
            "team": "Brown",
            "city": "Brooklyn",
            "country": "United States",
            "display_location": "Brooklyn, United States",
            "record": "8-8",
            "team_position": 6,
            "rating": 5.09,
            "lat": 40.6526006,
            "lng": -73.9497211
        },
        {
            "name": "Kimmel, Catherine",
            "team": "Brown",
            "city": "Rye",
            "country": "United States",
            "display_location": "Rye, United States",
            "record": "6-10",
            "team_position": 8,
            "rating": 1.5,
            "lat": 40.9808209,
            "lng": -73.684294
        },
        {
            "name": "Syed, Sara",
            "team": "Brown",
            "city": "Malvern",
            "country": "United States",
            "display_location": "Malvern, United States",
            "record": "5-8",
            "team_position": 9,
            "rating": 4.79,
            "lat": 41.0024095,
            "lng": -95.5851939
        },
        {
            "name": "Lakhotia, Esha",
            "team": "Brown",
            "city": "Saratoga",
            "country": "United States",
            "display_location": "Saratoga, United States",
            "record": "7-8",
            "team_position": 10,
            "rating": 4.8,
            "lat": 43.0833231,
            "lng": -73.8712155
        },
        {
            "name": "Dowling, Katherine",
            "team": "Brown",
            "city": "Lutherville",
            "country": "United States",
            "display_location": "Lutherville, United States",
            "record": "4-6",
            "team_position": 11,
            "rating": 4.5,
            "lat": 39.423629950000006,
            "lng": -76.62091509974786
        },
        {
            "name": "Shammash, Naomi",
            "team": "Brown",
            "city": "Tenafly",
            "country": "United States",
            "display_location": "Tenafly, United States",
            "record": "2-0",
            "team_position": 12,
            "rating": 4.39,
            "lat": 40.9253766,
            "lng": -73.9629154
        },
        {
            "name": "Kuwana, Alyssa",
            "team": "Brown",
            "city": "Greenwich",
            "country": "United States",
            "display_location": "Greenwich, United States",
            "record": "0-0",
            "team_position": null,
            "rating": 3.67,
            "lat": 41.0264862,
            "lng": -73.6284598
        },
        {
            "name": "Tam, Marissa",
            "team": "Brown",
            "city": "",
            "country": "United States",
            "display_location": "United States",
            "record": "1-1",
            "team_position": null,
            "rating": 3.75,
            "lat": 39.7837304,
            "lng": -100.445882
        },
        {
            "name": "Ward, Julia H.",
            "team": "Williams College",
            "city": "Wilmington",
            "country": "United States",
            "display_location": "Wilmington, United States",
            "record": "11-10",
            "team_position": 1,
            "rating": 5.08,
            "lat": 39.7459468,
            "lng": -75.546589
        },
        {
            "name": "Jefferson, Haley",
            "team": "Williams College",
            "city": "Mississauga",
            "country": "Canada",
            "display_location": "Mississauga, Canada",
            "record": "18-7",
            "team_position": 2,
            "rating": 5.14,
            "lat": 43.5896231,
            "lng": -79.6443879
        },
        {
            "name": "Willwerth, Sarah",
            "team": "Williams College",
            "city": "Providence",
            "country": "United States",
            "display_location": "Providence, United States",
            "record": "13-10",
            "team_position": 3,
            "rating": 4.59,
            "lat": 41.8239891,
            "lng": -71.4128343
        },
        {
            "name": "Swann, Melissa",
            "team": "Williams College",
            "city": "Williamstown",
            "country": "United States",
            "display_location": "Williamstown, United States",
            "record": "16-8",
            "team_position": 4,
            "rating": 4.39,
            "lat": 42.7135472,
            "lng": -73.2094566
        },
        {
            "name": "Ng, Yu Quan",
            "team": "Williams College",
            "city": "Vancouver",
            "country": "Canada",
            "display_location": "Vancouver, Canada",
            "record": "20-5",
            "team_position": 5,
            "rating": 5.01,
            "lat": 49.2608724,
            "lng": -123.113952
        },
        {
            "name": "LeBlanc, Abigail",
            "team": "Williams College",
            "city": "West Hartford",
            "country": "United States",
            "display_location": "West Hartford, United States",
            "record": "13-8",
            "team_position": 6,
            "rating": 1.5,
            "lat": 41.7620447,
            "lng": -72.7420399
        },
        {
            "name": "Nicholson, Anna",
            "team": "Williams College",
            "city": "",
            "country": "United States",
            "display_location": "United States",
            "record": "16-9",
            "team_position": 7,
            "rating": 1.5,
            "lat": 39.7837304,
            "lng": -100.445882
        },
        {
            "name": "Wright, Kathryn A.",
            "team": "Williams College",
            "city": "Riverside",
            "country": "United States",
            "display_location": "Riverside, United States",
            "record": "17-7",
            "team_position": 8,
            "rating": 4.69,
            "lat": 33.9824949,
            "lng": -117.374238
        },
        {
            "name": "Kamat, Mira",
            "team": "Williams College",
            "city": "New York",
            "country": "United States",
            "display_location": "New York, United States",
            "record": "18-7",
            "team_position": 9,
            "rating": 4.35,
            "lat": 40.7127281,
            "lng": -74.0060152
        },
        {
            "name": "Pear, Alexandra",
            "team": "Williams College",
            "city": "Philadelphia",
            "country": "United States",
            "display_location": "Philadelphia, United States",
            "record": "19-7",
            "team_position": 10,
            "rating": 4.26,
            "lat": 39.9527237,
            "lng": -75.1635262
        },
        {
            "name": "Kelly, Isabel C.",
            "team": "Williams College",
            "city": "Weston",
            "country": "United States",
            "display_location": "Weston, United States",
            "record": "7-2",
            "team_position": 11,
            "rating": 4.47,
            "lat": 26.1003392,
            "lng": -80.399513
        },
        {
            "name": "Conza, Adrienne",
            "team": "Williams College",
            "city": "Canton",
            "country": "United States",
            "display_location": "Canton, United States",
            "record": "3-0",
            "team_position": 12,
            "rating": 1.5,
            "lat": 40.7985464,
            "lng": -81.3749508
        },
        {
            "name": "Bower, Elizabeth",
            "team": "Williams College",
            "city": "Chestnut Hill",
            "country": "United States",
            "display_location": "Chestnut Hill, United States",
            "record": "5-2",
            "team_position": 13,
            "rating": 1.5,
            "lat": 42.3306529,
            "lng": -71.1661647
        },
        {
            "name": "Srivastava, Nikita B",
            "team": "Williams College",
            "city": "Redwood Shores",
            "country": "United States",
            "display_location": "Redwood Shores, United States",
            "record": "2-0",
            "team_position": 14,
            "rating": 4.63,
            "lat": 37.5318804,
            "lng": -122.2480219
        },
        {
            "name": "Deshong, Cassie",
            "team": "Williams College",
            "city": "",
            "country": "United States",
            "display_location": "United States",
            "record": "0-0",
            "team_position": null,
            "rating": 1.5,
            "lat": 39.7837304,
            "lng": -100.445882
        },
        {
            "name": "Foo Yuk Han, Zoe",
            "team": "George Washington",
            "city": "Kuala Lumpur",
            "country": "Malaysia",
            "display_location": "Kuala Lumpur, Malaysia",
            "record": "18-6",
            "team_position": 1,
            "rating": 1.5,
            "lat": 3.1516964,
            "lng": 101.6942371
        },
        {
            "name": "Elmandouh, Engy M.",
            "team": "George Washington",
            "city": "",
            "country": "Egypt",
            "display_location": "Egypt",
            "record": "13-11",
            "team_position": 2,
            "rating": 1.5,
            "lat": 26.2540493,
            "lng": 29.2675469
        },
        {
            "name": "Tryon, Emma",
            "team": "George Washington",
            "city": "W Hartford",
            "country": "United States",
            "display_location": "W Hartford, United States",
            "record": "10-14",
            "team_position": 3,
            "rating": 4.97,
            "lat": 41.7620447,
            "lng": -72.7420399
        },
        {
            "name": "Pang, Nikki",
            "team": "George Washington",
            "city": "Singapore",
            "country": "Singapore",
            "display_location": "Singapore, Singapore",
            "record": "6-18",
            "team_position": 4,
            "rating": 1.5,
            "lat": 1.2899175,
            "lng": 103.8519072
        },
        {
            "name": "Nazir, Zuha",
            "team": "George Washington",
            "city": "Centerville",
            "country": "United States",
            "display_location": "Centerville, United States",
            "record": "9-15",
            "team_position": 5,
            "rating": 4.76,
            "lat": 31.2578221,
            "lng": -95.9785301
        },
        {
            "name": "Vedikammeyamai, Arunachlam",
            "team": "George Washington",
            "city": "",
            "country": "United States",
            "display_location": "United States",
            "record": "10-14",
            "team_position": 6,
            "rating": 4.69,
            "lat": 39.7837304,
            "lng": -100.445882
        },
        {
            "name": "Hinckley, Sasha",
            "team": "George Washington",
            "city": "Newport",
            "country": "United States",
            "display_location": "Newport, United States",
            "record": "4-16",
            "team_position": 7,
            "rating": 1.5,
            "lat": 41.4899827,
            "lng": -71.3137707
        },
        {
            "name": "Moscovici, Anna",
            "team": "George Washington",
            "city": "Mercer Island",
            "country": "United States",
            "display_location": "Mercer Island, United States",
            "record": "7-18",
            "team_position": 8,
            "rating": 1.5,
            "lat": 47.5766324,
            "lng": -122.2276378
        },
        {
            "name": "Stevenson, Grace",
            "team": "George Washington",
            "city": "Hamilton",
            "country": "United States",
            "display_location": "Hamilton, United States",
            "record": "3-11",
            "team_position": 9,
            "rating": 1.5,
            "lat": 31.6429346,
            "lng": -97.9715967
        },
        {
            "name": "Foley, Claire",
            "team": "George Washington",
            "city": "Buffalo",
            "country": "United States",
            "display_location": "Buffalo, United States",
            "record": "2-13",
            "team_position": 10,
            "rating": 1.5,
            "lat": 42.8867166,
            "lng": -78.8783922
        },
        {
            "name": "Eberstadt-Beattie, Zoe",
            "team": "George Washington",
            "city": "New York",
            "country": "United States",
            "display_location": "New York, United States",
            "record": "0-0",
            "team_position": null,
            "rating": 1.5,
            "lat": 40.7127281,
            "lng": -74.0060152
        },
        {
            "name": "Dowling, Ideal",
            "team": "Middlebury College",
            "city": "",
            "country": "United States",
            "display_location": "United States",
            "record": "3-15",
            "team_position": 1,
            "rating": 4.79,
            "lat": 39.7837304,
            "lng": -100.445882
        },
        {
            "name": "Schaus, Virginia L.",
            "team": "Middlebury College",
            "city": "Greenwich",
            "country": "United States",
            "display_location": "Greenwich, United States",
            "record": "6-12",
            "team_position": 2,
            "rating": 1.5,
            "lat": 41.0264862,
            "lng": -73.6284598
        },
        {
            "name": "Davis, Gwen A",
            "team": "Middlebury College",
            "city": "Rydal",
            "country": "United States",
            "display_location": "Rydal, United States",
            "record": "10-9",
            "team_position": 3,
            "rating": 4.73,
            "lat": 40.1064344,
            "lng": -75.108565
        },
        {
            "name": "Madden, Natalie L",
            "team": "Middlebury College",
            "city": "Weston",
            "country": "United States",
            "display_location": "Weston, United States",
            "record": "8-10",
            "team_position": 4,
            "rating": 1.5,
            "lat": 26.1003392,
            "lng": -80.399513
        },
        {
            "name": "Beinkampen, Emily B",
            "team": "Middlebury College",
            "city": "Haverford",
            "country": "United States",
            "display_location": "Haverford, United States",
            "record": "8-6",
            "team_position": 5,
            "rating": 1.5,
            "lat": 40.0131672,
            "lng": -75.2943516
        },
        {
            "name": "Arena, Caroline G",
            "team": "Middlebury College",
            "city": "Brooklyn",
            "country": "United States",
            "display_location": "Brooklyn, United States",
            "record": "12-7",
            "team_position": 6,
            "rating": 4.68,
            "lat": 40.6526006,
            "lng": -73.9497211
        },
        {
            "name": "Lowitt, Natasha",
            "team": "Middlebury College",
            "city": "New York",
            "country": "United States",
            "display_location": "New York, United States",
            "record": "10-9",
            "team_position": 7,
            "rating": 4.45,
            "lat": 40.7127281,
            "lng": -74.0060152
        },
        {
            "name": "Glassie, Anne F.",
            "team": "Middlebury College",
            "city": "Newport",
            "country": "United States",
            "display_location": "Newport, United States",
            "record": "12-7",
            "team_position": 8,
            "rating": 1.5,
            "lat": 41.4899827,
            "lng": -71.3137707
        },
        {
            "name": "Chugh, Mira",
            "team": "Middlebury College",
            "city": "New Canaan",
            "country": "United States",
            "display_location": "New Canaan, United States",
            "record": "12-7",
            "team_position": 9,
            "rating": 1.5,
            "lat": 41.146763,
            "lng": -73.4948446
        },
        {
            "name": "Santoro, Grace",
            "team": "Middlebury College",
            "city": "Boston",
            "country": "United States",
            "display_location": "Boston, United States",
            "record": "3-1",
            "team_position": 10,
            "rating": 4.47,
            "lat": 42.3554334,
            "lng": -71.060511
        },
        {
            "name": "McDonough, Maya S",
            "team": "Middlebury College",
            "city": "Manakin Sabot",
            "country": "United States",
            "display_location": "Manakin Sabot, United States",
            "record": "3-2",
            "team_position": 11,
            "rating": 4.52,
            "lat": 37.6017866,
            "lng": -77.7141989
        },
        {
            "name": "Barr, Hadley",
            "team": "Middlebury College",
            "city": "Bronxville",
            "country": "United States",
            "display_location": "Bronxville, United States",
            "record": "8-6",
            "team_position": 12,
            "rating": 1.5,
            "lat": 40.9381544,
            "lng": -73.8320784
        },
        {
            "name": "Suntha, Kieran",
            "team": "Middlebury College",
            "city": "Baltimore",
            "country": "United States",
            "display_location": "Baltimore, United States",
            "record": "1-0",
            "team_position": 13,
            "rating": 4.38,
            "lat": 39.2908816,
            "lng": -76.610759
        },
        {
            "name": "Taylor, Maren",
            "team": "Middlebury College",
            "city": "Concord",
            "country": "United States",
            "display_location": "Concord, United States",
            "record": "0-0",
            "team_position": 14,
            "rating": 1.5,
            "lat": 43.207178,
            "lng": -71.537476
        },
        {
            "name": "Hornbostel, Summer",
            "team": "Middlebury College",
            "city": "New York",
            "country": "United States",
            "display_location": "New York, United States",
            "record": "1-0",
            "team_position": 15,
            "rating": 1.5,
            "lat": 40.7127281,
            "lng": -74.0060152
        },
        {
            "name": "King Freedman, Eliza",
            "team": "Middlebury College",
            "city": "New York",
            "country": "United States",
            "display_location": "New York, United States",
            "record": "1-0",
            "team_position": 16,
            "rating": 3.24,
            "lat": 40.7127281,
            "lng": -74.0060152
        }
    ]
}