{
    "year": "2019",
    "players": [
        {
            "name": "Crouin, Victor",
            "team": "Harvard",
            "city": "",
            "country": "France",
            "display_location": "France",
            "record": "10-3",
            "team_position": 1,
            "rating": 7.58,
            "lat": 46.603354,
            "lng": 1.8883335
        },
        {
            "name": "Tarek, Marwan",
            "team": "Harvard",
            "city": "Cairo",
            "country": "Egypt",
            "display_location": "Cairo, Egypt",
            "record": "14-1",
            "team_position": 2,
            "rating": 6.96,
            "lat": 30.0443879,
            "lng": 31.2357257
        },
        {
            "name": "Brownell, Timmy",
            "team": "Harvard",
            "city": "Belmont",
            "country": "United States",
            "display_location": "Belmont, United States",
            "record": "12-1",
            "team_position": 3,
            "rating": 7.35,
            "lat": 40.0057737,
            "lng": -81.0097516
        },
        {
            "name": "Scherl, Samuel",
            "team": "Harvard",
            "city": "South Orange",
            "country": "United States",
            "display_location": "South Orange, United States",
            "record": "15-0",
            "team_position": 4,
            "rating": 6.55,
            "lat": 40.7474966,
            "lng": -74.2635376
        },
        {
            "name": "Abouaish, Saadeldin",
            "team": "Harvard",
            "city": "Cairo",
            "country": "Egypt",
            "display_location": "Cairo, Egypt",
            "record": "11-0",
            "team_position": 5,
            "rating": 1.5,
            "lat": 30.0443879,
            "lng": 31.2357257
        },
        {
            "name": "Hughes, Sean",
            "team": "Harvard",
            "city": "Newtown Square",
            "country": "United States",
            "display_location": "Newtown Square, United States",
            "record": "14-0",
            "team_position": 6,
            "rating": 1.5,
            "lat": 39.9868117,
            "lng": -75.4007633
        },
        {
            "name": "Crowne, George",
            "team": "Harvard",
            "city": "Oakville",
            "country": "Canada",
            "display_location": "Oakville, Canada",
            "record": "13-0",
            "team_position": 7,
            "rating": 6.99,
            "lat": 43.447436,
            "lng": -79.666672
        },
        {
            "name": "Corcoran, Adam",
            "team": "Harvard",
            "city": "Boston",
            "country": "United States",
            "display_location": "Boston, United States",
            "record": "14-1",
            "team_position": 8,
            "rating": 6.69,
            "lat": 42.3554334,
            "lng": -71.060511
        },
        {
            "name": "Gosset, Julien",
            "team": "Harvard",
            "city": "Toronto",
            "country": "Canada",
            "display_location": "Toronto, Canada",
            "record": "5-2",
            "team_position": 9,
            "rating": 1.5,
            "lat": 43.6534817,
            "lng": -79.3839347
        },
        {
            "name": "Gosset, Alexi",
            "team": "Harvard",
            "city": "Toronto",
            "country": "Canada",
            "display_location": "Toronto, Canada",
            "record": "12-1",
            "team_position": 10,
            "rating": 6.22,
            "lat": 43.6534817,
            "lng": -79.3839347
        },
        {
            "name": "Bansal, Rana C.",
            "team": "Harvard",
            "city": "Bellevue",
            "country": "United States",
            "display_location": "Bellevue, United States",
            "record": "5-1",
            "team_position": null,
            "rating": 5.62,
            "lat": 47.6144219,
            "lng": -122.192337
        },
        {
            "name": "Gulati, Varoun",
            "team": "Harvard",
            "city": "Newton",
            "country": "United States",
            "display_location": "Newton, United States",
            "record": "2-2",
            "team_position": null,
            "rating": 1.5,
            "lat": 42.3370414,
            "lng": -71.2092214
        },
        {
            "name": "Monrad, Stephen",
            "team": "Harvard",
            "city": "Newton",
            "country": "United States",
            "display_location": "Newton, United States",
            "record": "1-0",
            "team_position": null,
            "rating": 1.5,
            "lat": 42.3370414,
            "lng": -71.2092214
        },
        {
            "name": "Ong, John Finley",
            "team": "Harvard",
            "city": "Norwalk",
            "country": "United States",
            "display_location": "Norwalk, United States",
            "record": "2-2",
            "team_position": null,
            "rating": 5.67,
            "lat": 41.1175966,
            "lng": -73.4078968
        },
        {
            "name": "Patrick, Mandela",
            "team": "Harvard",
            "city": "San Fernando",
            "country": "Trinidad And Tobago",
            "display_location": "San Fernando, Trinidad And Tobago",
            "record": "0-0",
            "team_position": null,
            "rating": 1.5,
            "lat": 10.2807069,
            "lng": -61.4645896
        },
        {
            "name": "Waterous, Liam",
            "team": "Harvard",
            "city": "Calgary",
            "country": "United States",
            "display_location": "Calgary, United States",
            "record": "0-0",
            "team_position": null,
            "rating": 1.5,
            "lat": 31.6174004,
            "lng": -94.1193622
        },
        {
            "name": "Kumar, Kush",
            "team": "Trinity College",
            "city": "Boston",
            "country": "United States",
            "display_location": "Boston, United States",
            "record": "8-6",
            "team_position": 1,
            "rating": 6.44,
            "lat": 42.3554334,
            "lng": -71.060511
        },
        {
            "name": "Mohohlo, Thoboki",
            "team": "Trinity College",
            "city": "New York",
            "country": "United States",
            "display_location": "New York, United States",
            "record": "10-3",
            "team_position": 2,
            "rating": 1.5,
            "lat": 40.7127281,
            "lng": -74.0060152
        },
        {
            "name": "De Mulder, Tom",
            "team": "Trinity College",
            "city": "",
            "country": "Belgium",
            "display_location": "Belgium",
            "record": "11-5",
            "team_position": 3,
            "rating": 1.5,
            "lat": 50.6402809,
            "lng": 4.6667145
        },
        {
            "name": "Sakr, Ziad",
            "team": "Trinity College",
            "city": "Boston",
            "country": "United States",
            "display_location": "Boston, United States",
            "record": "13-4",
            "team_position": 4,
            "rating": 6.49,
            "lat": 42.3554334,
            "lng": -71.060511
        },
        {
            "name": "Tolba, Aly",
            "team": "Trinity College",
            "city": "Alexandria",
            "country": "United States",
            "display_location": "Alexandria, United States",
            "record": "11-7",
            "team_position": 5,
            "rating": 6.72,
            "lat": 38.8051095,
            "lng": -77.0470229
        },
        {
            "name": "Adik, Aryaman",
            "team": "Trinity College",
            "city": "Mumbai",
            "country": "United States",
            "display_location": "Mumbai, United States",
            "record": "11-8",
            "team_position": 6,
            "rating": 1.5,
            "lat": 36.3537169,
            "lng": -94.313335
        },
        {
            "name": "Lee, Andrew",
            "team": "Trinity College",
            "city": "",
            "country": "United States",
            "display_location": "United States",
            "record": "13-5",
            "team_position": 7,
            "rating": 1.5,
            "lat": 39.7837304,
            "lng": -100.445882
        },
        {
            "name": "Curtis, Will",
            "team": "Trinity College",
            "city": "Australia",
            "country": "Australia",
            "display_location": "Australia, Australia",
            "record": "11-8",
            "team_position": 8,
            "rating": 6.4,
            "lat": 0.0,
            "lng": 0.0
        },
        {
            "name": "Patrick, Nku",
            "team": "Trinity College",
            "city": "Boston",
            "country": "United States",
            "display_location": "Boston, United States",
            "record": "0-0",
            "team_position": 9,
            "rating": 6.25,
            "lat": 42.3554334,
            "lng": -71.060511
        },
        {
            "name": "O'sullivan, Patrick J",
            "team": "Trinity College",
            "city": "Hartford",
            "country": "Scotland",
            "display_location": "Hartford, Scotland",
            "record": "10-1",
            "team_position": 10,
            "rating": 1.5,
            "lat": 41.7764939,
            "lng": -72.6063209
        },
        {
            "name": "Pant, Mudit",
            "team": "Trinity College",
            "city": "",
            "country": "United States",
            "display_location": "United States",
            "record": "8-0",
            "team_position": 11,
            "rating": 1.5,
            "lat": 39.7837304,
            "lng": -100.445882
        },
        {
            "name": "Allaudin, Omar",
            "team": "Trinity College",
            "city": "Philadelphia",
            "country": "United States",
            "display_location": "Philadelphia, United States",
            "record": "0-0",
            "team_position": null,
            "rating": 1.5,
            "lat": 39.9527237,
            "lng": -75.1635262
        },
        {
            "name": "Antill, Braxton",
            "team": "Trinity College",
            "city": "Boston",
            "country": "United States",
            "display_location": "Boston, United States",
            "record": "0-0",
            "team_position": null,
            "rating": 4.77,
            "lat": 42.3554334,
            "lng": -71.060511
        },
        {
            "name": "Christoffersen, Tor E.",
            "team": "Trinity College",
            "city": "",
            "country": "Sweden",
            "display_location": "Sweden",
            "record": "0-0",
            "team_position": null,
            "rating": 1.5,
            "lat": 59.6749712,
            "lng": 14.5208584
        },
        {
            "name": "Craig, Michael",
            "team": "Trinity College",
            "city": "",
            "country": "United States",
            "display_location": "United States",
            "record": "0-0",
            "team_position": null,
            "rating": 7.06,
            "lat": 39.7837304,
            "lng": -100.445882
        },
        {
            "name": "Dolente, Andrew J.",
            "team": "Trinity College",
            "city": "Devon",
            "country": "United States",
            "display_location": "Devon, United States",
            "record": "0-0",
            "team_position": null,
            "rating": 1.5,
            "lat": 40.0473603,
            "lng": -75.4229511
        },
        {
            "name": "Essam, Mostafa",
            "team": "Trinity College",
            "city": "Closter",
            "country": "United States",
            "display_location": "Closter, United States",
            "record": "3-0",
            "team_position": null,
            "rating": 1.5,
            "lat": 40.9731536,
            "lng": -73.9615262
        },
        {
            "name": "Giacco, Nick W.",
            "team": "Trinity College",
            "city": "Rockland",
            "country": "United States",
            "display_location": "Rockland, United States",
            "record": "0-0",
            "team_position": null,
            "rating": 1.5,
            "lat": 41.1519319,
            "lng": -74.0357266
        },
        {
            "name": "Giordano, Burke S.",
            "team": "Trinity College",
            "city": "New Vernon",
            "country": "United States",
            "display_location": "New Vernon, United States",
            "record": "1-1",
            "team_position": null,
            "rating": 1.5,
            "lat": 40.7453784,
            "lng": -74.4973774
        },
        {
            "name": "Gozigian, Graham",
            "team": "Trinity College",
            "city": "Boston",
            "country": "United States",
            "display_location": "Boston, United States",
            "record": "1-1",
            "team_position": null,
            "rating": 1.5,
            "lat": 42.3554334,
            "lng": -71.060511
        },
        {
            "name": "Johnson, Mason W.",
            "team": "Trinity College",
            "city": "Norwell",
            "country": "United States",
            "display_location": "Norwell, United States",
            "record": "0-0",
            "team_position": null,
            "rating": 1.5,
            "lat": 42.1617681,
            "lng": -70.7939307
        },
        {
            "name": "Lord, Jake F",
            "team": "Trinity College",
            "city": "Centennial",
            "country": "United States",
            "display_location": "Centennial, United States",
            "record": "0-0",
            "team_position": null,
            "rating": 1.5,
            "lat": 39.579155,
            "lng": -104.8769227
        },
        {
            "name": "McLoughlin, Hollis T.",
            "team": "Trinity College",
            "city": "New York",
            "country": "United States",
            "display_location": "New York, United States",
            "record": "0-0",
            "team_position": null,
            "rating": 1.5,
            "lat": 40.7127281,
            "lng": -74.0060152
        },
        {
            "name": "Penders, Rick",
            "team": "Trinity College",
            "city": "New York",
            "country": "United States",
            "display_location": "New York, United States",
            "record": "0-0",
            "team_position": null,
            "rating": 6.43,
            "lat": 40.7127281,
            "lng": -74.0060152
        },
        {
            "name": "Rios, Martin",
            "team": "Trinity College",
            "city": "Granite Bay",
            "country": "Colombia",
            "display_location": "Granite Bay, Colombia",
            "record": "5-1",
            "team_position": null,
            "rating": 6.2,
            "lat": 50.2380853,
            "lng": -125.3118342
        },
        {
            "name": "Stuart, Colin",
            "team": "Trinity College",
            "city": "Greenwich",
            "country": "United States",
            "display_location": "Greenwich, United States",
            "record": "0-0",
            "team_position": null,
            "rating": 1.5,
            "lat": 41.0264862,
            "lng": -73.6284598
        },
        {
            "name": "Douglas, Andrew P.",
            "team": "Pennsylvania",
            "city": "Brooklyn",
            "country": "United States",
            "display_location": "Brooklyn, United States",
            "record": "12-5",
            "team_position": 1,
            "rating": 7.18,
            "lat": 40.6526006,
            "lng": -73.9497211
        },
        {
            "name": "Abou El Einen, Aly",
            "team": "Pennsylvania",
            "city": "Alexandria",
            "country": "Egypt",
            "display_location": "Alexandria, Egypt",
            "record": "15-3",
            "team_position": 2,
            "rating": 7.18,
            "lat": 31.1991806,
            "lng": 29.8951716
        },
        {
            "name": "Yacobucci, David M",
            "team": "Pennsylvania",
            "city": "Greenwich",
            "country": "United States",
            "display_location": "Greenwich, United States",
            "record": "10-7",
            "team_position": 3,
            "rating": 6.45,
            "lat": 41.0264862,
            "lng": -73.6284598
        },
        {
            "name": "Flynn, James",
            "team": "Pennsylvania",
            "city": "Toronto",
            "country": "Canada",
            "display_location": "Toronto, Canada",
            "record": "13-4",
            "team_position": 4,
            "rating": 6.99,
            "lat": 43.6534817,
            "lng": -79.3839347
        },
        {
            "name": "Mehl, Michael",
            "team": "Pennsylvania",
            "city": "Calgary",
            "country": "Canada",
            "display_location": "Calgary, Canada",
            "record": "12-6",
            "team_position": 5,
            "rating": 6.01,
            "lat": 51.0456064,
            "lng": -114.057541
        },
        {
            "name": "Tarek, Karim",
            "team": "Pennsylvania",
            "city": "New York",
            "country": "Egypt",
            "display_location": "New York, Egypt",
            "record": "12-5",
            "team_position": 6,
            "rating": 1.5,
            "lat": 43.0642298,
            "lng": -77.4074913
        },
        {
            "name": "Bhargava, Yash",
            "team": "Pennsylvania",
            "city": "Philadelphia",
            "country": "United States",
            "display_location": "Philadelphia, United States",
            "record": "11-5",
            "team_position": 7,
            "rating": 6.6,
            "lat": 39.9527237,
            "lng": -75.1635262
        },
        {
            "name": "Hagen, Wil",
            "team": "Pennsylvania",
            "city": "Princeton",
            "country": "United States",
            "display_location": "Princeton, United States",
            "record": "12-6",
            "team_position": 8,
            "rating": 6.49,
            "lat": 40.3496953,
            "lng": -74.6597376
        },
        {
            "name": "Zeitels, Jonathan M",
            "team": "Pennsylvania",
            "city": "Warren",
            "country": "United States",
            "display_location": "Warren, United States",
            "record": "12-3",
            "team_position": 9,
            "rating": 1.5,
            "lat": 36.3901694,
            "lng": -78.1052123
        },
        {
            "name": "Reed, Max D",
            "team": "Pennsylvania",
            "city": "Lebanon",
            "country": "United States",
            "display_location": "Lebanon, United States",
            "record": "9-1",
            "team_position": 10,
            "rating": 5.75,
            "lat": 40.375713,
            "lng": -76.4626118
        },
        {
            "name": "Murray, Ryan A",
            "team": "Pennsylvania",
            "city": "Bronxville",
            "country": "United States",
            "display_location": "Bronxville, United States",
            "record": "3-1",
            "team_position": 11,
            "rating": 1.5,
            "lat": 40.9381544,
            "lng": -73.8320784
        },
        {
            "name": "Angelakis, Marker J.",
            "team": "Pennsylvania",
            "city": "Gladwyne",
            "country": "United States",
            "display_location": "Gladwyne, United States",
            "record": "0-0",
            "team_position": null,
            "rating": 1.5,
            "lat": 40.0397304,
            "lng": -75.2791788
        },
        {
            "name": "Bradlow, Zach R",
            "team": "Pennsylvania",
            "city": "Ardmore",
            "country": "United States",
            "display_location": "Ardmore, United States",
            "record": "1-0",
            "team_position": null,
            "rating": 5.84,
            "lat": 34.1729273,
            "lng": -97.1309119
        },
        {
            "name": "Kim, Aaron H.",
            "team": "Pennsylvania",
            "city": "Phoenixville",
            "country": "United States",
            "display_location": "Phoenixville, United States",
            "record": "1-0",
            "team_position": null,
            "rating": 1.5,
            "lat": 40.1303822,
            "lng": -75.5149128
        },
        {
            "name": "Norman, Alex",
            "team": "Pennsylvania",
            "city": "",
            "country": "United States",
            "display_location": "United States",
            "record": "8-1",
            "team_position": null,
            "rating": 5.64,
            "lat": 39.7837304,
            "lng": -100.445882
        },
        {
            "name": "Davies, Ashley G.",
            "team": "Rochester",
            "city": "Chesterfield",
            "country": "United Kingdom",
            "display_location": "Chesterfield, United Kingdom",
            "record": "18-0",
            "team_position": 1,
            "rating": 6.17,
            "lat": 53.2352134,
            "lng": -1.4264097
        },
        {
            "name": "Lopez Valdivia, Ricardo",
            "team": "Rochester",
            "city": "Greenwich",
            "country": "United States",
            "display_location": "Greenwich, United States",
            "record": "10-8",
            "team_position": 2,
            "rating": 6.61,
            "lat": 41.0264862,
            "lng": -73.6284598
        },
        {
            "name": "Toth, Matthew",
            "team": "Rochester",
            "city": "Calgary",
            "country": "Canada",
            "display_location": "Calgary, Canada",
            "record": "11-7",
            "team_position": 3,
            "rating": 6.32,
            "lat": 51.0456064,
            "lng": -114.057541
        },
        {
            "name": "Kuhn, Lawrence",
            "team": "Rochester",
            "city": "",
            "country": "United States",
            "display_location": "United States",
            "record": "12-6",
            "team_position": 4,
            "rating": 1.5,
            "lat": 39.7837304,
            "lng": -100.445882
        },
        {
            "name": "Van der Pluijm, Thijs",
            "team": "Rochester",
            "city": "New York City",
            "country": "United States",
            "display_location": "New York City, United States",
            "record": "11-6",
            "team_position": 5,
            "rating": 6.35,
            "lat": 40.7127281,
            "lng": -74.0060152
        },
        {
            "name": "Sim Wei Jie, Marcus",
            "team": "Rochester",
            "city": "",
            "country": "United States",
            "display_location": "United States",
            "record": "16-2",
            "team_position": 6,
            "rating": 1.5,
            "lat": 39.7837304,
            "lng": -100.445882
        },
        {
            "name": "Segundo Corona, Cesar",
            "team": "Rochester",
            "city": "Corte Madera",
            "country": "Mexico",
            "display_location": "Corte Madera, Mexico",
            "record": "12-6",
            "team_position": 7,
            "rating": 6.7,
            "lat": 32.1128587,
            "lng": -116.1306382
        },
        {
            "name": "Porras, Rodrigo",
            "team": "Rochester",
            "city": "Santa Tecla",
            "country": "United States",
            "display_location": "Santa Tecla, United States",
            "record": "17-1",
            "team_position": 8,
            "rating": 1.5,
            "lat": 33.9070758,
            "lng": -117.9918847
        },
        {
            "name": "Martin, Sergio",
            "team": "Rochester",
            "city": "Rochester",
            "country": "United States",
            "display_location": "Rochester, United States",
            "record": "7-5",
            "team_position": 9,
            "rating": 1.5,
            "lat": 43.157285,
            "lng": -77.615214
        },
        {
            "name": "Riedelsheimer, Alexander",
            "team": "Rochester",
            "city": "Caledon",
            "country": "Canada",
            "display_location": "Caledon, Canada",
            "record": "9-4",
            "team_position": 10,
            "rating": 1.5,
            "lat": 43.875427,
            "lng": -79.858285
        },
        {
            "name": "Iyer, Siddhant",
            "team": "Rochester",
            "city": "Thane",
            "country": "United States",
            "display_location": "Thane, United States",
            "record": "5-0",
            "team_position": 11,
            "rating": 5.72,
            "lat": 58.2580495,
            "lng": -134.31844
        },
        {
            "name": "Ayanaputra, Warm",
            "team": "Rochester",
            "city": "Bangkok",
            "country": "Thailand",
            "display_location": "Bangkok, Thailand",
            "record": "0-0",
            "team_position": null,
            "rating": 1.5,
            "lat": 13.7524938,
            "lng": 100.4935089
        },
        {
            "name": "Mohr, Leonard C",
            "team": "Rochester",
            "city": "Menlo Park",
            "country": "United States",
            "display_location": "Menlo Park, United States",
            "record": "0-0",
            "team_position": null,
            "rating": 1.5,
            "lat": 37.4519671,
            "lng": -122.177992
        },
        {
            "name": "Lovejoy, Spencer W.",
            "team": "Yale",
            "city": "Philadelphia",
            "country": "United States",
            "display_location": "Philadelphia, United States",
            "record": "9-7",
            "team_position": 1,
            "rating": 7.02,
            "lat": 39.9527237,
            "lng": -75.1635262
        },
        {
            "name": "Raziel, Nadav",
            "team": "Yale",
            "city": "Hod Ha'Sharon",
            "country": "United States",
            "display_location": "Hod Ha'Sharon, United States",
            "record": "9-7",
            "team_position": 2,
            "rating": 6.66,
            "lat": 39.7837304,
            "lng": -100.445882
        },
        {
            "name": "Gill, Harrison",
            "team": "Yale",
            "city": "Darien",
            "country": "United States",
            "display_location": "Darien, United States",
            "record": "11-6",
            "team_position": 3,
            "rating": 6.59,
            "lat": 41.0787079,
            "lng": -73.4692873
        },
        {
            "name": "McCafferty, Calvin",
            "team": "Yale",
            "city": "Brooklyn",
            "country": "United States",
            "display_location": "Brooklyn, United States",
            "record": "11-7",
            "team_position": 4,
            "rating": 5.7,
            "lat": 40.6526006,
            "lng": -73.9497211
        },
        {
            "name": "Carney, Tyler M.",
            "team": "Yale",
            "city": "New Canaan",
            "country": "United States",
            "display_location": "New Canaan, United States",
            "record": "9-9",
            "team_position": 5,
            "rating": 6.44,
            "lat": 41.146763,
            "lng": -73.4948446
        },
        {
            "name": "Worth, Tiber M.",
            "team": "Yale",
            "city": "Brooklyn",
            "country": "United States",
            "display_location": "Brooklyn, United States",
            "record": "5-5",
            "team_position": 6,
            "rating": 1.5,
            "lat": 40.6526006,
            "lng": -73.9497211
        },
        {
            "name": "Kim, Eric",
            "team": "Yale",
            "city": "Phoenixville",
            "country": "United States",
            "display_location": "Phoenixville, United States",
            "record": "15-3",
            "team_position": 7,
            "rating": 6.64,
            "lat": 40.1303822,
            "lng": -75.5149128
        },
        {
            "name": "Losty, Jay",
            "team": "Yale",
            "city": "Radnor",
            "country": "United States",
            "display_location": "Radnor, United States",
            "record": "12-6",
            "team_position": 8,
            "rating": 5.74,
            "lat": 40.0448619,
            "lng": -75.3594728
        },
        {
            "name": "PANDOLE, YOHAN",
            "team": "Yale",
            "city": "New York",
            "country": "United States",
            "display_location": "New York, United States",
            "record": "11-7",
            "team_position": 9,
            "rating": 5.72,
            "lat": 40.7127281,
            "lng": -74.0060152
        },
        {
            "name": "Rhee, Jacob",
            "team": "Yale",
            "city": "Englewood Cliffs",
            "country": "United States",
            "display_location": "Englewood Cliffs, United States",
            "record": "6-8",
            "team_position": 10,
            "rating": 1.5,
            "lat": 40.8853773,
            "lng": -73.9523597
        },
        {
            "name": "Feeley, Patrick F.",
            "team": "Yale",
            "city": "Greenwich",
            "country": "United States",
            "display_location": "Greenwich, United States",
            "record": "2-2",
            "team_position": 11,
            "rating": 1.5,
            "lat": 41.0264862,
            "lng": -73.6284598
        },
        {
            "name": "Bhatia, Parth",
            "team": "Yale",
            "city": "Columbus",
            "country": "United States",
            "display_location": "Columbus, United States",
            "record": "0-1",
            "team_position": null,
            "rating": 1.5,
            "lat": 39.9622601,
            "lng": -83.0007065
        },
        {
            "name": "Kovac, Jonathan",
            "team": "Yale",
            "city": "Malvern",
            "country": "United States",
            "display_location": "Malvern, United States",
            "record": "4-4",
            "team_position": null,
            "rating": 1.5,
            "lat": 41.0024095,
            "lng": -95.5851939
        },
        {
            "name": "Turner, Samuel R",
            "team": "Yale",
            "city": "Haverford",
            "country": "United States",
            "display_location": "Haverford, United States",
            "record": "0-0",
            "team_position": null,
            "rating": 1.5,
            "lat": 40.0131672,
            "lng": -75.2943516
        },
        {
            "name": "Senthilkumar, Velavan",
            "team": "Columbia",
            "city": "",
            "country": "United States",
            "display_location": "United States",
            "record": "13-3",
            "team_position": 1,
            "rating": 6.87,
            "lat": 39.7837304,
            "lng": -100.445882
        },
        {
            "name": "Wyatt, James",
            "team": "Columbia",
            "city": "New York",
            "country": "United States",
            "display_location": "New York, United States",
            "record": "12-4",
            "team_position": 2,
            "rating": 6.58,
            "lat": 40.7127281,
            "lng": -74.0060152
        },
        {
            "name": "Hall, Callan M",
            "team": "Columbia",
            "city": "Pretoria",
            "country": "South Africa",
            "display_location": "Pretoria, South Africa",
            "record": "10-5",
            "team_position": 3,
            "rating": 6.81,
            "lat": -25.7459277,
            "lng": 28.1879101
        },
        {
            "name": "Mann, Robin Singh",
            "team": "Columbia",
            "city": "",
            "country": "India",
            "display_location": "India",
            "record": "12-4",
            "team_position": 4,
            "rating": 1.5,
            "lat": 22.3511148,
            "lng": 78.6677428
        },
        {
            "name": "Robitaille, Carter",
            "team": "Columbia",
            "city": "Toronto",
            "country": "Canada",
            "display_location": "Toronto, Canada",
            "record": "10-6",
            "team_position": 5,
            "rating": 6.3,
            "lat": 43.6534817,
            "lng": -79.3839347
        },
        {
            "name": "Madi, Adham",
            "team": "Columbia",
            "city": "New York",
            "country": "United States",
            "display_location": "New York, United States",
            "record": "11-2",
            "team_position": 6,
            "rating": 1.5,
            "lat": 40.7127281,
            "lng": -74.0060152
        },
        {
            "name": "Sehrawat, Rahul",
            "team": "Columbia",
            "city": "New York",
            "country": "United States",
            "display_location": "New York, United States",
            "record": "7-6",
            "team_position": 7,
            "rating": 6.17,
            "lat": 40.7127281,
            "lng": -74.0060152
        },
        {
            "name": "Kapur, Krish",
            "team": "Columbia",
            "city": "Kolkata",
            "country": "India",
            "display_location": "Kolkata, India",
            "record": "11-5",
            "team_position": 8,
            "rating": 1.5,
            "lat": 22.5726459,
            "lng": 88.3638953
        },
        {
            "name": "Jindal, Arman S.",
            "team": "Columbia",
            "city": "Los Altos",
            "country": "United States",
            "display_location": "Los Altos, United States",
            "record": "6-7",
            "team_position": 9,
            "rating": 1.5,
            "lat": 37.3790629,
            "lng": -122.116578
        },
        {
            "name": "Kankariya, Aditya",
            "team": "Columbia",
            "city": "San Francisco",
            "country": "United States",
            "display_location": "San Francisco, United States",
            "record": "4-4",
            "team_position": 10,
            "rating": 6.23,
            "lat": 37.7792588,
            "lng": -122.4193286
        },
        {
            "name": "Rebello, Matthew",
            "team": "Columbia",
            "city": "Plano",
            "country": "United States",
            "display_location": "Plano, United States",
            "record": "1-8",
            "team_position": 11,
            "rating": 1.5,
            "lat": 33.0136764,
            "lng": -96.6925096
        },
        {
            "name": "Amin, Salmaan (Manu)",
            "team": "Columbia",
            "city": "Charlotte",
            "country": "United States",
            "display_location": "Charlotte, United States",
            "record": "1-2",
            "team_position": 12,
            "rating": 1.5,
            "lat": 35.2272086,
            "lng": -80.8430827
        },
        {
            "name": "Patel, Vishan",
            "team": "Columbia",
            "city": "Atlanta",
            "country": "United States",
            "display_location": "Atlanta, United States",
            "record": "0-0",
            "team_position": 13,
            "rating": 5.42,
            "lat": 33.7489924,
            "lng": -84.3902644
        },
        {
            "name": "Athar, 5.5, Zain",
            "team": "Columbia",
            "city": "Avon",
            "country": "United States",
            "display_location": "Avon, United States",
            "record": "0-0",
            "team_position": 14,
            "rating": 5.55,
            "lat": 40.6642065,
            "lng": -90.4348506
        },
        {
            "name": "Awalt, Mac R.",
            "team": "Columbia",
            "city": "Greenwich",
            "country": "United States",
            "display_location": "Greenwich, United States",
            "record": "0-0",
            "team_position": 15,
            "rating": 1.5,
            "lat": 41.0264862,
            "lng": -73.6284598
        },
        {
            "name": "Spahr, Carson",
            "team": "Dartmouth College",
            "city": "Milton",
            "country": "United States",
            "display_location": "Milton, United States",
            "record": "5-12",
            "team_position": 1,
            "rating": 6.3,
            "lat": 42.2501425,
            "lng": -71.065573
        },
        {
            "name": "Giegerich, Matthew",
            "team": "Dartmouth College",
            "city": "Wyndmoor",
            "country": "United States",
            "display_location": "Wyndmoor, United States",
            "record": "10-7",
            "team_position": 2,
            "rating": 6.08,
            "lat": 40.0853435,
            "lng": -75.19402070907555
        },
        {
            "name": "Epley, Samuel C.",
            "team": "Dartmouth College",
            "city": "Old Greenwich",
            "country": "United States",
            "display_location": "Old Greenwich, United States",
            "record": "6-11",
            "team_position": 3,
            "rating": 1.5,
            "lat": 41.022875,
            "lng": -73.564846
        },
        {
            "name": "De Otaduy, Brandon",
            "team": "Dartmouth College",
            "city": "Lawrenceville",
            "country": "United States",
            "display_location": "Lawrenceville, United States",
            "record": "8-9",
            "team_position": 4,
            "rating": 1.5,
            "lat": 33.9566391,
            "lng": -83.9890066
        },
        {
            "name": "Harding, Toby",
            "team": "Dartmouth College",
            "city": "Bristol",
            "country": "England",
            "display_location": "Bristol, England",
            "record": "1-3",
            "team_position": 5,
            "rating": 1.5,
            "lat": 51.4538022,
            "lng": -2.5972985
        },
        {
            "name": "Anderson, Reg",
            "team": "Dartmouth College",
            "city": "Brookline",
            "country": "United States",
            "display_location": "Brookline, United States",
            "record": "6-6",
            "team_position": 6,
            "rating": 5.79,
            "lat": 42.3329021,
            "lng": -71.1187421
        },
        {
            "name": "Finkelstein, Max A.",
            "team": "Dartmouth College",
            "city": "Greenwich",
            "country": "United States",
            "display_location": "Greenwich, United States",
            "record": "4-13",
            "team_position": 7,
            "rating": 1.5,
            "lat": 41.0264862,
            "lng": -73.6284598
        },
        {
            "name": "Martino, Tucker V.",
            "team": "Dartmouth College",
            "city": "Harrison",
            "country": "United States",
            "display_location": "Harrison, United States",
            "record": "10-7",
            "team_position": 8,
            "rating": 5.94,
            "lat": 32.5233959,
            "lng": -94.3982158
        },
        {
            "name": "Bell, James",
            "team": "Dartmouth College",
            "city": "Boston",
            "country": "United States",
            "display_location": "Boston, United States",
            "record": "11-6",
            "team_position": 9,
            "rating": 6.13,
            "lat": 42.3554334,
            "lng": -71.060511
        },
        {
            "name": "Bell, Jack",
            "team": "Dartmouth College",
            "city": "Wellesley",
            "country": "United States",
            "display_location": "Wellesley, United States",
            "record": "12-3",
            "team_position": 10,
            "rating": 6.27,
            "lat": 42.2964859,
            "lng": -71.2925571
        },
        {
            "name": "Monroe, Drew",
            "team": "Dartmouth College",
            "city": "New Canaan",
            "country": "United States",
            "display_location": "New Canaan, United States",
            "record": "2-2",
            "team_position": 11,
            "rating": 1.5,
            "lat": 41.146763,
            "lng": -73.4948446
        },
        {
            "name": "Johnston, Leyton",
            "team": "Dartmouth College",
            "city": "Buffalo",
            "country": "United States",
            "display_location": "Buffalo, United States",
            "record": "0-0",
            "team_position": null,
            "rating": 5.74,
            "lat": 42.8867166,
            "lng": -78.8783922
        },
        {
            "name": "Oen, Sean",
            "team": "Dartmouth College",
            "city": "Princeton Junction",
            "country": "United States",
            "display_location": "Princeton Junction, United States",
            "record": "4-2",
            "team_position": null,
            "rating": 5.29,
            "lat": 40.3173301,
            "lng": -74.6198791
        },
        {
            "name": "Quayle, Zachary F.",
            "team": "Dartmouth College",
            "city": "Bryn Mawr",
            "country": "United States",
            "display_location": "Bryn Mawr, United States",
            "record": "0-1",
            "team_position": null,
            "rating": 1.5,
            "lat": 40.0238245,
            "lng": -75.31734069085473
        },
        {
            "name": "Supattapone, Sam",
            "team": "Dartmouth College",
            "city": "Hanover",
            "country": "United States",
            "display_location": "Hanover, United States",
            "record": "5-1",
            "team_position": null,
            "rating": 6.11,
            "lat": 43.7023545,
            "lng": -72.2892164
        }
    ]
}