{
    "year": "2023",
    "players": [
        {
            "name": "Burstein, Ido",
            "team": "Harvard",
            "city": "",
            "country": "Israel",
            "display_location": "Israel",
            "record": "13-3",
            "team_position": 3,
            "rating": 6.71,
            "lat": 30.8124247,
            "lng": 34.8594762
        },
        {
            "name": "Harms, Tate",
            "team": "Harvard",
            "city": "",
            "country": "Switzerland",
            "display_location": "Switzerland",
            "record": "15-2",
            "team_position": 4,
            "rating": 6.76,
            "lat": 46.7985624,
            "lng": 8.2319736
        },
        {
            "name": "Gilevskiy, Denis",
            "team": "Harvard",
            "city": "",
            "country": "Ireland",
            "display_location": "Ireland",
            "record": "15-1",
            "team_position": 5,
            "rating": 6.77,
            "lat": 52.865196,
            "lng": -7.9794599
        },
        {
            "name": "Costales, David",
            "team": "Harvard",
            "city": "Kent",
            "country": "United States",
            "display_location": "Kent, United States",
            "record": "12-4",
            "team_position": 6,
            "rating": 6.92,
            "lat": 33.1665316,
            "lng": -100.7846477
        },
        {
            "name": "Joshi, Neel",
            "team": "Harvard",
            "city": "",
            "country": "India",
            "display_location": "India",
            "record": "14-3",
            "team_position": 7,
            "rating": 6.51,
            "lat": 22.3511148,
            "lng": 78.6677428
        },
        {
            "name": "Rotzoll, Liam",
            "team": "Harvard",
            "city": "Bethesda",
            "country": "United States",
            "display_location": "Bethesda, United States",
            "record": "4-2",
            "team_position": 8,
            "rating": 6.54,
            "lat": 38.98127255,
            "lng": -77.12335871396549
        },
        {
            "name": "Menon, Ayush",
            "team": "Harvard",
            "city": "Edison",
            "country": "United States",
            "display_location": "Edison, United States",
            "record": "13-1",
            "team_position": 9,
            "rating": 6.61,
            "lat": 40.518157,
            "lng": -74.4113926
        },
        {
            "name": "Shah, Ishant",
            "team": "Harvard",
            "city": "Georgetown",
            "country": "Malaysia",
            "display_location": "Georgetown, Malaysia",
            "record": "9-3",
            "team_position": 10,
            "rating": 6.39,
            "lat": 6.1194695,
            "lng": 100.3892994
        },
        {
            "name": "Stoltz, Conner",
            "team": "Harvard",
            "city": "Bronxville",
            "country": "United States",
            "display_location": "Bronxville, United States",
            "record": "8-1",
            "team_position": 11,
            "rating": 6.29,
            "lat": 40.9381544,
            "lng": -73.8320784
        },
        {
            "name": "Cupps JR, Bobby A.",
            "team": "Harvard",
            "city": "Chicago",
            "country": "United States",
            "display_location": "Chicago, United States",
            "record": "2-0",
            "team_position": null,
            "rating": 6.08,
            "lat": 41.8755616,
            "lng": -87.6244212
        },
        {
            "name": "Sharaf, Mohamed",
            "team": "Trinity College",
            "city": "",
            "country": "Egypt",
            "display_location": "Egypt",
            "record": "16-4",
            "team_position": 1,
            "rating": 7.12,
            "lat": 26.2540493,
            "lng": 29.2675469
        },
        {
            "name": "Nassar, Abdelrahman",
            "team": "Trinity College",
            "city": "Cairo",
            "country": "Egypt",
            "display_location": "Cairo, Egypt",
            "record": "16-6",
            "team_position": 2,
            "rating": 6.8,
            "lat": 30.0443879,
            "lng": 31.2357257
        },
        {
            "name": "Chuah, Joachim",
            "team": "Trinity College",
            "city": "Shah Alam",
            "country": "Malaysia",
            "display_location": "Shah Alam, Malaysia",
            "record": "14-4",
            "team_position": 3,
            "rating": 6.89,
            "lat": 3.0739429,
            "lng": 101.5185278
        },
        {
            "name": "Ismail, Ahmed",
            "team": "Trinity College",
            "city": "Hartford",
            "country": "United States",
            "display_location": "Hartford, United States",
            "record": "13-6",
            "team_position": 4,
            "rating": 6.42,
            "lat": 41.764582,
            "lng": -72.6908547
        },
        {
            "name": "ElBorolossy, Marawan",
            "team": "Trinity College",
            "city": "",
            "country": "United States",
            "display_location": "United States",
            "record": "5-9",
            "team_position": 5,
            "rating": 6.57,
            "lat": 39.7837304,
            "lng": -100.445882
        },
        {
            "name": "Simon, Daniel",
            "team": "Trinity College",
            "city": "Budapest",
            "country": "Hungary",
            "display_location": "Budapest, Hungary",
            "record": "4-1",
            "team_position": 6,
            "rating": 6.39,
            "lat": 47.48138955,
            "lng": 19.14609412691246
        },
        {
            "name": "Takacs, Benedek",
            "team": "Trinity College",
            "city": "Szeged",
            "country": "Hungary",
            "display_location": "Szeged, Hungary",
            "record": "19-2",
            "team_position": 7,
            "rating": 6.67,
            "lat": 46.2546312,
            "lng": 20.1486016
        },
        {
            "name": "Benthin, Julius",
            "team": "Trinity College",
            "city": "Hamburg",
            "country": "Germany",
            "display_location": "Hamburg, Germany",
            "record": "13-3",
            "team_position": 8,
            "rating": 6.49,
            "lat": 53.550341,
            "lng": 10.000654
        },
        {
            "name": "Cumberbatch, Khamal J.",
            "team": "Trinity College",
            "city": "Bridgetown",
            "country": "Barbados",
            "display_location": "Bridgetown, Barbados",
            "record": "15-2",
            "team_position": 9,
            "rating": 6.56,
            "lat": 13.0977832,
            "lng": -59.6184184
        },
        {
            "name": "Izham, Danial",
            "team": "Trinity College",
            "city": "",
            "country": "United States",
            "display_location": "United States",
            "record": "12-4",
            "team_position": 10,
            "rating": 6.51,
            "lat": 39.7837304,
            "lng": -100.445882
        },
        {
            "name": "Adik, Advait",
            "team": "Trinity College",
            "city": "Mumbai",
            "country": "India",
            "display_location": "Mumbai, India",
            "record": "8-4",
            "team_position": 12,
            "rating": 6.18,
            "lat": 18.9733536,
            "lng": 72.82810491917377
        },
        {
            "name": "Restrepo, Mateo",
            "team": "Trinity College",
            "city": "Medellin Colombia",
            "country": "Colombia",
            "display_location": "Medellin Colombia, Colombia",
            "record": "13-1",
            "team_position": 13,
            "rating": 6.46,
            "lat": 6.2527703500000005,
            "lng": -75.57397479794734
        },
        {
            "name": "Conigliaro, Douglas A",
            "team": "Trinity College",
            "city": "Dedham",
            "country": "United States",
            "display_location": "Dedham, United States",
            "record": "3-1",
            "team_position": null,
            "rating": 5.43,
            "lat": 42.2489143,
            "lng": -71.1755732
        },
        {
            "name": "Culhane, Henry",
            "team": "Trinity College",
            "city": "Brooklyn",
            "country": "United States",
            "display_location": "Brooklyn, United States",
            "record": "2-0",
            "team_position": null,
            "rating": 5.77,
            "lat": 40.6526006,
            "lng": -73.9497211
        },
        {
            "name": "Eltoukhy, ali",
            "team": "Trinity College",
            "city": "",
            "country": "United States",
            "display_location": "United States",
            "record": "0-0",
            "team_position": null,
            "rating": 1.5,
            "lat": 39.7837304,
            "lng": -100.445882
        },
        {
            "name": "Jones, Will",
            "team": "Trinity College",
            "city": "Greenwich",
            "country": "United States",
            "display_location": "Greenwich, United States",
            "record": "3-0",
            "team_position": null,
            "rating": 5.82,
            "lat": 41.0264862,
            "lng": -73.6284598
        },
        {
            "name": "Kovas, Reed",
            "team": "Trinity College",
            "city": "Lake Bluff",
            "country": "United States",
            "display_location": "Lake Bluff, United States",
            "record": "0-1",
            "team_position": null,
            "rating": 5.01,
            "lat": 42.2789117,
            "lng": -87.8342362
        },
        {
            "name": "Neill, Christopher",
            "team": "Trinity College",
            "city": "Lake Forest",
            "country": "United States",
            "display_location": "Lake Forest, United States",
            "record": "0-0",
            "team_position": null,
            "rating": 5.27,
            "lat": 42.2586461,
            "lng": -87.8407055
        },
        {
            "name": "Yee Xian, Siow",
            "team": "Yale",
            "city": "Melaka",
            "country": "Malaysia",
            "display_location": "Melaka, Malaysia",
            "record": "9-6",
            "team_position": 1,
            "rating": 6.88,
            "lat": 2.3293744,
            "lng": 102.2880962
        },
        {
            "name": "Orr, Maxwell E",
            "team": "Yale",
            "city": "Haverford",
            "country": "United States",
            "display_location": "Haverford, United States",
            "record": "6-9",
            "team_position": 2,
            "rating": 6.78,
            "lat": 40.0131672,
            "lng": -75.2943516
        },
        {
            "name": "Forster, Max",
            "team": "Yale",
            "city": "",
            "country": "England",
            "display_location": "England",
            "record": "10-5",
            "team_position": 3,
            "rating": 6.67,
            "lat": 52.5310214,
            "lng": -1.2649062
        },
        {
            "name": "Carney, Tad E.",
            "team": "Yale",
            "city": "New Canaan",
            "country": "United States",
            "display_location": "New Canaan, United States",
            "record": "8-5",
            "team_position": 4,
            "rating": 6.88,
            "lat": 41.146763,
            "lng": -73.4948446
        },
        {
            "name": "Burde, Jed",
            "team": "Yale",
            "city": "Bala Cynwyd",
            "country": "United States",
            "display_location": "Bala Cynwyd, United States",
            "record": "7-7",
            "team_position": 5,
            "rating": 6.37,
            "lat": 40.0076125,
            "lng": -75.2340695
        },
        {
            "name": "Bhagwati, Arav V.",
            "team": "Yale",
            "city": "Hillsborough",
            "country": "United States",
            "display_location": "Hillsborough, United States",
            "record": "12-3",
            "team_position": 6,
            "rating": 6.69,
            "lat": 27.9184543,
            "lng": -82.3488057
        },
        {
            "name": "Ismail, Nikhil",
            "team": "Yale",
            "city": "Toronto",
            "country": "Canada",
            "display_location": "Toronto, Canada",
            "record": "8-4",
            "team_position": 7,
            "rating": 6.66,
            "lat": 43.6534817,
            "lng": -79.3839347
        },
        {
            "name": "Leonard, Brian F.",
            "team": "Yale",
            "city": "Harrison",
            "country": "United States",
            "display_location": "Harrison, United States",
            "record": "12-2",
            "team_position": 8,
            "rating": 6.55,
            "lat": 32.5233959,
            "lng": -94.3982158
        },
        {
            "name": "Kim, Eric",
            "team": "Yale",
            "city": "Phoenixville",
            "country": "United States",
            "display_location": "Phoenixville, United States",
            "record": "10-2",
            "team_position": 9,
            "rating": 6.64,
            "lat": 40.1303822,
            "lng": -75.5149128
        },
        {
            "name": "Wurts, Merritt W.",
            "team": "Yale",
            "city": "Wyndmoor",
            "country": "United States",
            "display_location": "Wyndmoor, United States",
            "record": "10-2",
            "team_position": 10,
            "rating": 6.43,
            "lat": 40.0853435,
            "lng": -75.19402070907555
        },
        {
            "name": "Clayton, Taylor B.",
            "team": "Yale",
            "city": "Greenwich",
            "country": "United States",
            "display_location": "Greenwich, United States",
            "record": "5-0",
            "team_position": 11,
            "rating": 6.05,
            "lat": 41.0264862,
            "lng": -73.6284598
        },
        {
            "name": "Chu, Janson",
            "team": "Yale",
            "city": "",
            "country": "Hong Kong",
            "display_location": "Hong Kong",
            "record": "1-1",
            "team_position": 12,
            "rating": 6.1,
            "lat": 22.350627,
            "lng": 114.1849161
        },
        {
            "name": "Mehta, Shreyas N",
            "team": "Yale",
            "city": "Mumbai",
            "country": "India",
            "display_location": "Mumbai, India",
            "record": "0-0",
            "team_position": 13,
            "rating": 6.02,
            "lat": 18.9733536,
            "lng": 72.82810491917377
        },
        {
            "name": "Tsai, David J",
            "team": "Yale",
            "city": "Natick",
            "country": "United States",
            "display_location": "Natick, United States",
            "record": "0-0",
            "team_position": 14,
            "rating": 1.5,
            "lat": 42.2836393,
            "lng": -71.346996
        },
        {
            "name": "Kueh, Nathan Tze Bing",
            "team": "Pennsylvania",
            "city": "Miri",
            "country": "Malaysia",
            "display_location": "Miri, Malaysia",
            "record": "14-5",
            "team_position": 1,
            "rating": 6.81,
            "lat": 4.3940102,
            "lng": 113.9880199
        },
        {
            "name": "Spizzirri, Nicholas",
            "team": "Pennsylvania",
            "city": "Greenwich",
            "country": "United States",
            "display_location": "Greenwich, United States",
            "record": "15-0",
            "team_position": 2,
            "rating": 7.03,
            "lat": 41.0264862,
            "lng": -73.6284598
        },
        {
            "name": "Alber Baddour, Roger",
            "team": "Pennsylvania",
            "city": "Alexandria",
            "country": "Egypt",
            "display_location": "Alexandria, Egypt",
            "record": "7-3",
            "team_position": 3,
            "rating": 6.53,
            "lat": 31.1991806,
            "lng": 29.8951716
        },
        {
            "name": "Hafez, Omar",
            "team": "Pennsylvania",
            "city": "",
            "country": "Egypt",
            "display_location": "Egypt",
            "record": "16-1",
            "team_position": 4,
            "rating": 6.94,
            "lat": 26.2540493,
            "lng": 29.2675469
        },
        {
            "name": "Santry, Dana A.",
            "team": "Pennsylvania",
            "city": "Greenwich",
            "country": "United States",
            "display_location": "Greenwich, United States",
            "record": "12-3",
            "team_position": 7,
            "rating": 6.66,
            "lat": 41.0264862,
            "lng": -73.6284598
        },
        {
            "name": "Dweek, Abdelrahman",
            "team": "Pennsylvania",
            "city": "Calgary",
            "country": "Canada",
            "display_location": "Calgary, Canada",
            "record": "13-2",
            "team_position": 9,
            "rating": 6.66,
            "lat": 51.0456064,
            "lng": -114.057541
        },
        {
            "name": "Gambhir, Shaam P",
            "team": "Pennsylvania",
            "city": "Berwyn",
            "country": "United States",
            "display_location": "Berwyn, United States",
            "record": "7-3",
            "team_position": 10,
            "rating": 6.39,
            "lat": 41.8505874,
            "lng": -87.7936685
        },
        {
            "name": "Green, Oliver",
            "team": "Pennsylvania",
            "city": "Billericay",
            "country": "England",
            "display_location": "Billericay, England",
            "record": "10-1",
            "team_position": 11,
            "rating": 6.45,
            "lat": 51.6284395,
            "lng": 0.4218142
        },
        {
            "name": "Luthra, Rehan",
            "team": "Pennsylvania",
            "city": "Kirkland",
            "country": "United States",
            "display_location": "Kirkland, United States",
            "record": "9-1",
            "team_position": 12,
            "rating": 6.47,
            "lat": 47.6765382,
            "lng": -122.2070775
        },
        {
            "name": "Cui, Hao R",
            "team": "Pennsylvania",
            "city": "Baltimore",
            "country": "United States",
            "display_location": "Baltimore, United States",
            "record": "5-0",
            "team_position": 13,
            "rating": 6.36,
            "lat": 39.2908816,
            "lng": -76.610759
        },
        {
            "name": "Narvaez, Diego",
            "team": "Pennsylvania",
            "city": "",
            "country": "United States",
            "display_location": "United States",
            "record": "2-0",
            "team_position": 16,
            "rating": 5.48,
            "lat": 39.7837304,
            "lng": -100.445882
        },
        {
            "name": "Penman, Kyle",
            "team": "Pennsylvania",
            "city": "Stirling",
            "country": "Scotland",
            "display_location": "Stirling, Scotland",
            "record": "0-0",
            "team_position": null,
            "rating": 6.46,
            "lat": 56.1181242,
            "lng": -3.9360012
        },
        {
            "name": "Knudsen, Matias",
            "team": "Drexel",
            "city": "Bogota",
            "country": "United States",
            "display_location": "Bogota, United States",
            "record": "14-3",
            "team_position": 1,
            "rating": 7.07,
            "lat": 40.8762106,
            "lng": -74.0298621
        },
        {
            "name": "Serna, Nicolas",
            "team": "Drexel",
            "city": "Bogota",
            "country": "Colombia",
            "display_location": "Bogota, Colombia",
            "record": "10-8",
            "team_position": 2,
            "rating": 6.67,
            "lat": 4.6533816,
            "lng": -74.0836333
        },
        {
            "name": "Lopez, Jose Andres",
            "team": "Drexel",
            "city": "San Salvador",
            "country": "El Salvador",
            "display_location": "San Salvador, El Salvador",
            "record": "9-8",
            "team_position": 3,
            "rating": 6.48,
            "lat": 13.6989939,
            "lng": -89.1914249
        },
        {
            "name": "Pollak Pelbart, Yuri",
            "team": "Drexel",
            "city": "",
            "country": "United States",
            "display_location": "United States",
            "record": "11-7",
            "team_position": 4,
            "rating": 6.6,
            "lat": 39.7837304,
            "lng": -100.445882
        },
        {
            "name": "Jacobsson, Fritiof",
            "team": "Drexel",
            "city": "Kullavik",
            "country": "Sweden",
            "display_location": "Kullavik, Sweden",
            "record": "5-7",
            "team_position": 5,
            "rating": 6.5,
            "lat": 57.5441573,
            "lng": 11.9342205
        },
        {
            "name": "Krueger, Filip",
            "team": "Drexel",
            "city": "Stockholm",
            "country": "United States",
            "display_location": "Stockholm, United States",
            "record": "8-10",
            "team_position": 6,
            "rating": 6.32,
            "lat": 47.042522,
            "lng": -68.139954
        },
        {
            "name": "Heaton, Noel",
            "team": "Drexel",
            "city": "Calgary",
            "country": "Canada",
            "display_location": "Calgary, Canada",
            "record": "13-5",
            "team_position": 7,
            "rating": 6.39,
            "lat": 51.0456064,
            "lng": -114.057541
        },
        {
            "name": "Wiltshire, Shomari",
            "team": "Drexel",
            "city": "Eccles Aa",
            "country": "Guyana",
            "display_location": "Eccles Aa, Guyana",
            "record": "7-7",
            "team_position": 8,
            "rating": 6.16,
            "lat": 6.7742154,
            "lng": -58.1740575
        },
        {
            "name": "Nagpal, Gautam",
            "team": "Drexel",
            "city": "Ghaziabad",
            "country": "India",
            "display_location": "Ghaziabad, India",
            "record": "6-7",
            "team_position": 9,
            "rating": 6.08,
            "lat": 28.7678881,
            "lng": 77.46066723508514
        },
        {
            "name": "Dalal, Shaan",
            "team": "Drexel",
            "city": "Mumbaai",
            "country": "United States",
            "display_location": "Mumbaai, United States",
            "record": "5-6",
            "team_position": 10,
            "rating": 5.96,
            "lat": 39.7837304,
            "lng": -100.445882
        },
        {
            "name": "Alzaatari, Hussain",
            "team": "Drexel",
            "city": "Kuwait",
            "country": "Kuwait",
            "display_location": "Kuwait, Kuwait",
            "record": "0-1",
            "team_position": 11,
            "rating": 5.97,
            "lat": 29.3796532,
            "lng": 47.9734174
        },
        {
            "name": "Abou Taleb, Nicolo",
            "team": "Drexel",
            "city": "Pelham",
            "country": "United States",
            "display_location": "Pelham, United States",
            "record": "2-1",
            "team_position": null,
            "rating": 5.51,
            "lat": 42.734534,
            "lng": -71.3245067
        },
        {
            "name": "Berry, Michael",
            "team": "Drexel",
            "city": "Johannesburg",
            "country": "South Africa",
            "display_location": "Johannesburg, South Africa",
            "record": "0-0",
            "team_position": null,
            "rating": 5.88,
            "lat": -26.205,
            "lng": 28.049722
        },
        {
            "name": "Lucente, Matthew",
            "team": "Drexel",
            "city": "Auckland",
            "country": "New Zealand",
            "display_location": "Auckland, New Zealand",
            "record": "2-2",
            "team_position": null,
            "rating": 6.04,
            "lat": -36.852095,
            "lng": 174.7631803
        },
        {
            "name": "Qasim, Haris",
            "team": "Drexel",
            "city": "Lahore",
            "country": "Pakistan",
            "display_location": "Lahore, Pakistan",
            "record": "2-4",
            "team_position": null,
            "rating": 6.66,
            "lat": 31.5656822,
            "lng": 74.3141829
        },
        {
            "name": "Chotrani, Veer",
            "team": "Cornell",
            "city": "",
            "country": "India",
            "display_location": "India",
            "record": "9-8",
            "team_position": 1,
            "rating": 7.13,
            "lat": 22.3511148,
            "lng": 78.6677428
        },
        {
            "name": "Liang, Aaron",
            "team": "Cornell",
            "city": "Singapore",
            "country": "Singapore",
            "display_location": "Singapore, Singapore",
            "record": "5-11",
            "team_position": 2,
            "rating": 6.51,
            "lat": 1.357107,
            "lng": 103.8194992
        },
        {
            "name": "Sareen, Arnaav",
            "team": "Cornell",
            "city": "Pune",
            "country": "India",
            "display_location": "Pune, India",
            "record": "10-7",
            "team_position": 3,
            "rating": 6.54,
            "lat": 18.5213738,
            "lng": 73.8545071
        },
        {
            "name": "Yager, Spencer",
            "team": "Cornell",
            "city": "Villanova",
            "country": "United States",
            "display_location": "Villanova, United States",
            "record": "9-8",
            "team_position": 4,
            "rating": 6.48,
            "lat": 40.0373323,
            "lng": -75.3490769
        },
        {
            "name": "Khan, Humza A",
            "team": "Cornell",
            "city": "Dayton",
            "country": "United States",
            "display_location": "Dayton, United States",
            "record": "5-11",
            "team_position": 5,
            "rating": 6.23,
            "lat": 39.7589478,
            "lng": -84.1916069
        },
        {
            "name": "Iyer, Rohan",
            "team": "Cornell",
            "city": "Cincinnati",
            "country": "United States",
            "display_location": "Cincinnati, United States",
            "record": "6-8",
            "team_position": 6,
            "rating": 6.32,
            "lat": 39.1014537,
            "lng": -84.5124602
        },
        {
            "name": "Punjabi, Tanay",
            "team": "Cornell",
            "city": "Mumbai",
            "country": "India",
            "display_location": "Mumbai, India",
            "record": "6-8",
            "team_position": 7,
            "rating": 6.19,
            "lat": 18.9733536,
            "lng": 72.82810491917377
        },
        {
            "name": "Huberman, Morgan",
            "team": "Cornell",
            "city": "New York",
            "country": "United States",
            "display_location": "New York, United States",
            "record": "6-9",
            "team_position": 8,
            "rating": 6.16,
            "lat": 40.7127281,
            "lng": -74.0060152
        },
        {
            "name": "Goth Errington, Nicholas",
            "team": "Cornell",
            "city": "Bromma",
            "country": "Sweden",
            "display_location": "Bromma, Sweden",
            "record": "8-7",
            "team_position": 9,
            "rating": 6.18,
            "lat": 59.339769,
            "lng": 17.9395411
        },
        {
            "name": "Pandole, Jeh",
            "team": "Cornell",
            "city": "Mumbai",
            "country": "India",
            "display_location": "Mumbai, India",
            "record": "1-0",
            "team_position": 10,
            "rating": 5.79,
            "lat": 18.9733536,
            "lng": 72.82810491917377
        },
        {
            "name": "Stein, Brent",
            "team": "Cornell",
            "city": "Paradise Valley",
            "country": "United States",
            "display_location": "Paradise Valley, United States",
            "record": "3-2",
            "team_position": 11,
            "rating": 5.62,
            "lat": 33.5428006,
            "lng": -111.9556001
        },
        {
            "name": "Gopalakrishnan, Mukunth",
            "team": "Cornell",
            "city": "Fremont",
            "country": "United States",
            "display_location": "Fremont, United States",
            "record": "1-1",
            "team_position": null,
            "rating": 6.21,
            "lat": 37.5482697,
            "lng": -121.988571
        },
        {
            "name": "Langdon, William M",
            "team": "Cornell",
            "city": "Maitland",
            "country": "United States",
            "display_location": "Maitland, United States",
            "record": "0-0",
            "team_position": null,
            "rating": 5.54,
            "lat": 28.6275253,
            "lng": -81.3656419
        },
        {
            "name": "Morneau, Edward",
            "team": "Cornell",
            "city": "Toronto",
            "country": "Canada",
            "display_location": "Toronto, Canada",
            "record": "1-1",
            "team_position": null,
            "rating": 5.65,
            "lat": 43.6534817,
            "lng": -79.3839347
        },
        {
            "name": "Raghavan, Shreemann",
            "team": "Cornell",
            "city": "Chennai",
            "country": "India",
            "display_location": "Chennai, India",
            "record": "3-2",
            "team_position": null,
            "rating": 6.22,
            "lat": 13.0836939,
            "lng": 80.270186
        },
        {
            "name": "Robinson, Nicholas J",
            "team": "Cornell",
            "city": "Locust Valley",
            "country": "United States",
            "display_location": "Locust Valley, United States",
            "record": "3-5",
            "team_position": null,
            "rating": 6.19,
            "lat": 40.8757712,
            "lng": -73.5971927
        },
        {
            "name": "Sarbinowski, William",
            "team": "Cornell",
            "city": "Darien",
            "country": "United States",
            "display_location": "Darien, United States",
            "record": "0-0",
            "team_position": null,
            "rating": 5.89,
            "lat": 41.0787079,
            "lng": -73.4692873
        },
        {
            "name": "Sawyers, Robert",
            "team": "Cornell",
            "city": "New York",
            "country": "United States",
            "display_location": "New York, United States",
            "record": "1-0",
            "team_position": null,
            "rating": 5.47,
            "lat": 40.7127281,
            "lng": -74.0060152
        },
        {
            "name": "Elbarbary, Karim",
            "team": "Princeton",
            "city": "Cairo",
            "country": "Egypt",
            "display_location": "Cairo, Egypt",
            "record": "9-5",
            "team_position": 2,
            "rating": 6.91,
            "lat": 30.0443879,
            "lng": 31.2357257
        },
        {
            "name": "Rosini, Thomas P",
            "team": "Princeton",
            "city": "Gladwyne",
            "country": "United States",
            "display_location": "Gladwyne, United States",
            "record": "9-6",
            "team_position": 3,
            "rating": 6.77,
            "lat": 40.0397304,
            "lng": -75.2791788
        },
        {
            "name": "Wael, Ahmed",
            "team": "Princeton",
            "city": "Cairo",
            "country": "Egypt",
            "display_location": "Cairo, Egypt",
            "record": "4-8",
            "team_position": 4,
            "rating": 6.54,
            "lat": 30.0443879,
            "lng": 31.2357257
        },
        {
            "name": "Khalil, Hassan",
            "team": "Princeton",
            "city": "Solihull",
            "country": "England",
            "display_location": "Solihull, England",
            "record": "10-5",
            "team_position": 5,
            "rating": 6.5,
            "lat": 52.4130189,
            "lng": -1.7768935
        },
        {
            "name": "Cho, Alastair S",
            "team": "Princeton",
            "city": "Reisterstown",
            "country": "United States",
            "display_location": "Reisterstown, United States",
            "record": "12-3",
            "team_position": 6,
            "rating": 6.75,
            "lat": 39.4586723,
            "lng": -76.81853758947369
        },
        {
            "name": "Ahmed, Zain R",
            "team": "Princeton",
            "city": "Morgan Hill",
            "country": "United States",
            "display_location": "Morgan Hill, United States",
            "record": "9-3",
            "team_position": 7,
            "rating": 6.55,
            "lat": 37.130408,
            "lng": -121.6544974
        },
        {
            "name": "Lam, Gordon",
            "team": "Princeton",
            "city": "Lake Oswego",
            "country": "United States",
            "display_location": "Lake Oswego, United States",
            "record": "8-5",
            "team_position": 8,
            "rating": 6.63,
            "lat": 45.4206749,
            "lng": -122.670649
        },
        {
            "name": "Sosa, Federico",
            "team": "Princeton",
            "city": "Kent",
            "country": "Mexico",
            "display_location": "Kent, Mexico",
            "record": "9-3",
            "team_position": 9,
            "rating": 6.42,
            "lat": 19.4326296,
            "lng": -99.1331785
        },
        {
            "name": "Agarwal, Avi",
            "team": "Princeton",
            "city": "Monroe Township",
            "country": "United States",
            "display_location": "Monroe Township, United States",
            "record": "6-2",
            "team_position": 10,
            "rating": 6.61,
            "lat": 43.690677199999996,
            "lng": -85.74073206987296
        },
        {
            "name": "Beeson, David",
            "team": "Princeton",
            "city": "Riverside",
            "country": "United States",
            "display_location": "Riverside, United States",
            "record": "6-1",
            "team_position": 11,
            "rating": 6.47,
            "lat": 33.9824949,
            "lng": -117.374238
        },
        {
            "name": "Mukherjee, Arin J.",
            "team": "Princeton",
            "city": "Princeton",
            "country": "United States",
            "display_location": "Princeton, United States",
            "record": "2-0",
            "team_position": 12,
            "rating": 6.35,
            "lat": 40.3496953,
            "lng": -74.6597376
        },
        {
            "name": "Ezratty, William",
            "team": "Princeton",
            "city": "Greenwich",
            "country": "United States",
            "display_location": "Greenwich, United States",
            "record": "3-0",
            "team_position": 13,
            "rating": 6.23,
            "lat": 41.0264862,
            "lng": -73.6284598
        },
        {
            "name": "Kontulis, James",
            "team": "Princeton",
            "city": "New Canaan",
            "country": "United States",
            "display_location": "New Canaan, United States",
            "record": "1-0",
            "team_position": 14,
            "rating": 5.55,
            "lat": 41.146763,
            "lng": -73.4948446
        },
        {
            "name": "Chiang, Sam H",
            "team": "Princeton",
            "city": "New York",
            "country": "United States",
            "display_location": "New York, United States",
            "record": "1-0",
            "team_position": 15,
            "rating": 5.09,
            "lat": 40.7127281,
            "lng": -74.0060152
        },
        {
            "name": "Bruno, Kion",
            "team": "Princeton",
            "city": "Westport",
            "country": "United States",
            "display_location": "Westport, United States",
            "record": "0-0",
            "team_position": null,
            "rating": 5.24,
            "lat": 41.1414855,
            "lng": -73.3578955
        },
        {
            "name": "Khatri, Maaz",
            "team": "Princeton",
            "city": "Dubai",
            "country": "Australia",
            "display_location": "Dubai, Australia",
            "record": "1-0",
            "team_position": null,
            "rating": 6.47,
            "lat": 25.231477499999997,
            "lng": 55.19435079998544
        },
        {
            "name": "Mawji, Daelum",
            "team": "Princeton",
            "city": "Naples",
            "country": "United States",
            "display_location": "Naples, United States",
            "record": "5-8",
            "team_position": null,
            "rating": 6.74,
            "lat": 26.1421976,
            "lng": -81.7942944
        }
    ]
}