{
    "year": "2023",
    "players": [
        {
            "name": "Burstein, Ido",
            "team": "Harvard",
            "city": "",
            "country": "Israel",
            "display_location": "Israel",
            "record": "13-3",
            "team_position": 3,
            "rating": 6.71,
            "lat": 30.8124247,
            "lng": 34.8594762
        },
        {
            "name": "Harms, Tate",
            "team": "Harvard",
            "city": "",
            "country": "Switzerland",
            "display_location": "Switzerland",
            "record": "15-2",
            "team_position": 4,
            "rating": 6.76,
            "lat": 46.7985624,
            "lng": 8.2319736
        },
        {
            "name": "Gilevskiy, Denis",
            "team": "Harvard",
            "city": "",
            "country": "Ireland",
            "display_location": "Ireland",
            "record": "15-1",
            "team_position": 5,
            "rating": 6.77,
            "lat": 52.865196,
            "lng": -7.9794599
        },
        {
            "name": "Costales, David",
            "team": "Harvard",
            "city": "Kent",
            "country": "United States",
            "display_location": "Kent, United States",
            "record": "12-4",
            "team_position": 6,
            "rating": 6.92,
            "lat": 33.1665316,
            "lng": -100.7846477
        },
        {
            "name": "Joshi, Neel",
            "team": "Harvard",
            "city": "",
            "country": "India",
            "display_location": "India",
            "record": "14-3",
            "team_position": 7,
            "rating": 6.51,
            "lat": 22.3511148,
            "lng": 78.6677428
        },
        {
            "name": "Rotzoll, Liam",
            "team": "Harvard",
            "city": "Bethesda",
            "country": "United States",
            "display_location": "Bethesda, United States",
            "record": "4-2",
            "team_position": 8,
            "rating": 6.54,
            "lat": 38.98127255,
            "lng": -77.12335871396549
        },
        {
            "name": "Menon, Ayush",
            "team": "Harvard",
            "city": "Edison",
            "country": "United States",
            "display_location": "Edison, United States",
            "record": "13-1",
            "team_position": 9,
            "rating": 6.61,
            "lat": 40.518157,
            "lng": -74.4113926
        },
        {
            "name": "Shah, Ishant",
            "team": "Harvard",
            "city": "Georgetown",
            "country": "Malaysia",
            "display_location": "Georgetown, Malaysia",
            "record": "9-3",
            "team_position": 10,
            "rating": 6.39,
            "lat": 6.1194695,
            "lng": 100.3892994
        },
        {
            "name": "Stoltz, Conner",
            "team": "Harvard",
            "city": "Bronxville",
            "country": "United States",
            "display_location": "Bronxville, United States",
            "record": "8-1",
            "team_position": 11,
            "rating": 6.29,
            "lat": 40.9381544,
            "lng": -73.8320784
        },
        {
            "name": "Cupps JR, Bobby A.",
            "team": "Harvard",
            "city": "Chicago",
            "country": "United States",
            "display_location": "Chicago, United States",
            "record": "2-0",
            "team_position": null,
            "rating": 6.08,
            "lat": 41.8755616,
            "lng": -87.6244212
        },
        {
            "name": "Sharaf, Mohamed",
            "team": "Trinity College",
            "city": "",
            "country": "Egypt",
            "display_location": "Egypt",
            "record": "16-4",
            "team_position": 1,
            "rating": 7.12,
            "lat": 26.2540493,
            "lng": 29.2675469
        },
        {
            "name": "Nassar, Abdelrahman",
            "team": "Trinity College",
            "city": "Cairo",
            "country": "Egypt",
            "display_location": "Cairo, Egypt",
            "record": "16-6",
            "team_position": 2,
            "rating": 6.8,
            "lat": 30.0443879,
            "lng": 31.2357257
        },
        {
            "name": "Chuah, Joachim",
            "team": "Trinity College",
            "city": "Shah Alam",
            "country": "Malaysia",
            "display_location": "Shah Alam, Malaysia",
            "record": "14-4",
            "team_position": 3,
            "rating": 6.89,
            "lat": 3.0739429,
            "lng": 101.5185278
        },
        {
            "name": "Ismail, Ahmed",
            "team": "Trinity College",
            "city": "Hartford",
            "country": "United States",
            "display_location": "Hartford, United States",
            "record": "13-6",
            "team_position": 4,
            "rating": 6.42,
            "lat": 41.764582,
            "lng": -72.6908547
        },
        {
            "name": "ElBorolossy, Marawan",
            "team": "Trinity College",
            "city": "",
            "country": "United States",
            "display_location": "United States",
            "record": "5-9",
            "team_position": 5,
            "rating": 6.57,
            "lat": 39.7837304,
            "lng": -100.445882
        },
        {
            "name": "Simon, Daniel",
            "team": "Trinity College",
            "city": "Budapest",
            "country": "Hungary",
            "display_location": "Budapest, Hungary",
            "record": "4-1",
            "team_position": 6,
            "rating": 6.39,
            "lat": 47.48138955,
            "lng": 19.14609412691246
        },
        {
            "name": "Takacs, Benedek",
            "team": "Trinity College",
            "city": "Szeged",
            "country": "Hungary",
            "display_location": "Szeged, Hungary",
            "record": "19-2",
            "team_position": 7,
            "rating": 6.67,
            "lat": 46.2546312,
            "lng": 20.1486016
        },
        {
            "name": "Benthin, Julius",
            "team": "Trinity College",
            "city": "Hamburg",
            "country": "Germany",
            "display_location": "Hamburg, Germany",
            "record": "13-3",
            "team_position": 8,
            "rating": 6.49,
            "lat": 53.550341,
            "lng": 10.000654
        },
        {
            "name": "Cumberbatch, Khamal J.",
            "team": "Trinity College",
            "city": "Bridgetown",
            "country": "Barbados",
            "display_location": "Bridgetown, Barbados",
            "record": "15-2",
            "team_position": 9,
            "rating": 6.56,
            "lat": 13.0977832,
            "lng": -59.6184184
        },
        {
            "name": "Izham, Danial",
            "team": "Trinity College",
            "city": "",
            "country": "United States",
            "display_location": "United States",
            "record": "12-4",
            "team_position": 10,
            "rating": 6.51,
            "lat": 39.7837304,
            "lng": -100.445882
        },
        {
            "name": "Adik, Advait",
            "team": "Trinity College",
            "city": "Mumbai",
            "country": "India",
            "display_location": "Mumbai, India",
            "record": "8-4",
            "team_position": 12,
            "rating": 6.18,
            "lat": 18.9733536,
            "lng": 72.82810491917377
        },
        {
            "name": "Restrepo, Mateo",
            "team": "Trinity College",
            "city": "Medellin Colombia",
            "country": "Colombia",
            "display_location": "Medellin Colombia, Colombia",
            "record": "13-1",
            "team_position": 13,
            "rating": 6.46,
            "lat": 6.2527703500000005,
            "lng": -75.57397479794734
        },
        {
            "name": "Conigliaro, Douglas A",
            "team": "Trinity College",
            "city": "Dedham",
            "country": "United States",
            "display_location": "Dedham, United States",
            "record": "3-1",
            "team_position": null,
            "rating": 5.43,
            "lat": 42.2489143,
            "lng": -71.1755732
        },
        {
            "name": "Culhane, Henry",
            "team": "Trinity College",
            "city": "Brooklyn",
            "country": "United States",
            "display_location": "Brooklyn, United States",
            "record": "2-0",
            "team_position": null,
            "rating": 5.77,
            "lat": 40.6526006,
            "lng": -73.9497211
        },
        {
            "name": "Eltoukhy, ali",
            "team": "Trinity College",
            "city": "",
            "country": "United States",
            "display_location": "United States",
            "record": "0-0",
            "team_position": null,
            "rating": 1.5,
            "lat": 39.7837304,
            "lng": -100.445882
        },
        {
            "name": "Jones, Will",
            "team": "Trinity College",
            "city": "Greenwich",
            "country": "United States",
            "display_location": "Greenwich, United States",
            "record": "3-0",
            "team_position": null,
            "rating": 5.82,
            "lat": 41.0264862,
            "lng": -73.6284598
        },
        {
            "name": "Kovas, Reed",
            "team": "Trinity College",
            "city": "Lake Bluff",
            "country": "United States",
            "display_location": "Lake Bluff, United States",
            "record": "0-1",
            "team_position": null,
            "rating": 5.01,
            "lat": 42.2789117,
            "lng": -87.8342362
        },
        {
            "name": "Neill, Christopher",
            "team": "Trinity College",
            "city": "Lake Forest",
            "country": "United States",
            "display_location": "Lake Forest, United States",
            "record": "0-0",
            "team_position": null,
            "rating": 5.27,
            "lat": 42.2586461,
            "lng": -87.8407055
        },
        {
            "name": "Yee Xian, Siow",
            "team": "Yale",
            "city": "Melaka",
            "country": "Malaysia",
            "display_location": "Melaka, Malaysia",
            "record": "9-6",
            "team_position": 1,
            "rating": 6.88,
            "lat": 2.3293744,
            "lng": 102.2880962
        },
        {
            "name": "Orr, Maxwell E",
            "team": "Yale",
            "city": "Haverford",
            "country": "United States",
            "display_location": "Haverford, United States",
            "record": "6-9",
            "team_position": 2,
            "rating": 6.78,
            "lat": 40.0131672,
            "lng": -75.2943516
        },
        {
            "name": "Forster, Max",
            "team": "Yale",
            "city": "",
            "country": "England",
            "display_location": "England",
            "record": "10-5",
            "team_position": 3,
            "rating": 6.67,
            "lat": 52.5310214,
            "lng": -1.2649062
        },
        {
            "name": "Carney, Tad E.",
            "team": "Yale",
            "city": "New Canaan",
            "country": "United States",
            "display_location": "New Canaan, United States",
            "record": "8-5",
            "team_position": 4,
            "rating": 6.88,
            "lat": 41.146763,
            "lng": -73.4948446
        },
        {
            "name": "Burde, Jed",
            "team": "Yale",
            "city": "Bala Cynwyd",
            "country": "United States",
            "display_location": "Bala Cynwyd, United States",
            "record": "7-7",
            "team_position": 5,
            "rating": 6.37,
            "lat": 40.0076125,
            "lng": -75.2340695
        },
        {
            "name": "Bhagwati, Arav V.",
            "team": "Yale",
            "city": "Hillsborough",
            "country": "United States",
            "display_location": "Hillsborough, United States",
            "record": "12-3",
            "team_position": 6,
            "rating": 6.69,
            "lat": 27.9184543,
            "lng": -82.3488057
        },
        {
            "name": "Ismail, Nikhil",
            "team": "Yale",
            "city": "Toronto",
            "country": "Canada",
            "display_location": "Toronto, Canada",
            "record": "8-4",
            "team_position": 7,
            "rating": 6.66,
            "lat": 43.6534817,
            "lng": -79.3839347
        },
        {
            "name": "Leonard, Brian F.",
            "team": "Yale",
            "city": "Harrison",
            "country": "United States",
            "display_location": "Harrison, United States",
            "record": "12-2",
            "team_position": 8,
            "rating": 6.55,
            "lat": 32.5233959,
            "lng": -94.3982158
        },
        {
            "name": "Kim, Eric",
            "team": "Yale",
            "city": "Phoenixville",
            "country": "United States",
            "display_location": "Phoenixville, United States",
            "record": "10-2",
            "team_position": 9,
            "rating": 6.64,
            "lat": 40.1303822,
            "lng": -75.5149128
        },
        {
            "name": "Wurts, Merritt W.",
            "team": "Yale",
            "city": "Wyndmoor",
            "country": "United States",
            "display_location": "Wyndmoor, United States",
            "record": "10-2",
            "team_position": 10,
            "rating": 6.43,
            "lat": 40.0853435,
            "lng": -75.19402070907555
        },
        {
            "name": "Clayton, Taylor B.",
            "team": "Yale",
            "city": "Greenwich",
            "country": "United States",
            "display_location": "Greenwich, United States",
            "record": "5-0",
            "team_position": 11,
            "rating": 6.05,
            "lat": 41.0264862,
            "lng": -73.6284598
        },
        {
            "name": "Chu, Janson",
            "team": "Yale",
            "city": "",
            "country": "Hong Kong",
            "display_location": "Hong Kong",
            "record": "1-1",
            "team_position": 12,
            "rating": 6.1,
            "lat": 22.350627,
            "lng": 114.1849161
        },
        {
            "name": "Mehta, Shreyas N",
            "team": "Yale",
            "city": "Mumbai",
            "country": "India",
            "display_location": "Mumbai, India",
            "record": "0-0",
            "team_position": 13,
            "rating": 6.02,
            "lat": 18.9733536,
            "lng": 72.82810491917377
        },
        {
            "name": "Tsai, David J",
            "team": "Yale",
            "city": "Natick",
            "country": "United States",
            "display_location": "Natick, United States",
            "record": "0-0",
            "team_position": 14,
            "rating": 1.5,
            "lat": 42.2836393,
            "lng": -71.346996
        },
        {
            "name": "Kueh, Nathan Tze Bing",
            "team": "Pennsylvania",
            "city": "Miri",
            "country": "Malaysia",
            "display_location": "Miri, Malaysia",
            "record": "14-5",
            "team_position": 1,
            "rating": 6.81,
            "lat": 4.3940102,
            "lng": 113.9880199
        },
        {
            "name": "Spizzirri, Nicholas",
            "team": "Pennsylvania",
            "city": "Greenwich",
            "country": "United States",
            "display_location": "Greenwich, United States",
            "record": "15-0",
            "team_position": 2,
            "rating": 7.03,
            "lat": 41.0264862,
            "lng": -73.6284598
        },
        {
            "name": "Alber Baddour, Roger",
            "team": "Pennsylvania",
            "city": "Alexandria",
            "country": "Egypt",
            "display_location": "Alexandria, Egypt",
            "record": "7-3",
            "team_position": 3,
            "rating": 6.53,
            "lat": 31.1991806,
            "lng": 29.8951716
        },
        {
            "name": "Hafez, Omar",
            "team": "Pennsylvania",
            "city": "",
            "country": "Egypt",
            "display_location": "Egypt",
            "record": "16-1",
            "team_position": 4,
            "rating": 6.94,
            "lat": 26.2540493,
            "lng": 29.2675469
        },
        {
            "name": "Santry, Dana A.",
            "team": "Pennsylvania",
            "city": "Greenwich",
            "country": "United States",
            "display_location": "Greenwich, United States",
            "record": "12-3",
            "team_position": 7,
            "rating": 6.66,
            "lat": 41.0264862,
            "lng": -73.6284598
        },
        {
            "name": "Dweek, Abdelrahman",
            "team": "Pennsylvania",
            "city": "Calgary",
            "country": "Canada",
            "display_location": "Calgary, Canada",
            "record": "13-2",
            "team_position": 9,
            "rating": 6.66,
            "lat": 51.0456064,
            "lng": -114.057541
        },
        {
            "name": "Gambhir, Shaam P",
            "team": "Pennsylvania",
            "city": "Berwyn",
            "country": "United States",
            "display_location": "Berwyn, United States",
            "record": "7-3",
            "team_position": 10,
            "rating": 6.39,
            "lat": 41.8505874,
            "lng": -87.7936685
        },
        {
            "name": "Green, Oliver",
            "team": "Pennsylvania",
            "city": "Billericay",
            "country": "England",
            "display_location": "Billericay, England",
            "record": "10-1",
            "team_position": 11,
            "rating": 6.45,
            "lat": 51.6284395,
            "lng": 0.4218142
        },
        {
            "name": "Luthra, Rehan",
            "team": "Pennsylvania",
            "city": "Kirkland",
            "country": "United States",
            "display_location": "Kirkland, United States",
            "record": "9-1",
            "team_position": 12,
            "rating": 6.47,
            "lat": 47.6765382,
            "lng": -122.2070775
        },
        {
            "name": "Cui, Hao R",
            "team": "Pennsylvania",
            "city": "Baltimore",
            "country": "United States",
            "display_location": "Baltimore, United States",
            "record": "5-0",
            "team_position": 13,
            "rating": 6.36,
            "lat": 39.2908816,
            "lng": -76.610759
        },
        {
            "name": "Narvaez, Diego",
            "team": "Pennsylvania",
            "city": "",
            "country": "United States",
            "display_location": "United States",
            "record": "2-0",
            "team_position": 16,
            "rating": 5.48,
            "lat": 39.7837304,
            "lng": -100.445882
        },
        {
            "name": "Penman, Kyle",
            "team": "Pennsylvania",
            "city": "Stirling",
            "country": "Scotland",
            "display_location": "Stirling, Scotland",
            "record": "0-0",
            "team_position": null,
            "rating": 6.46,
            "lat": 56.1181242,
            "lng": -3.9360012
        },
        {
            "name": "Knudsen, Matias",
            "team": "Drexel",
            "city": "Bogota",
            "country": "United States",
            "display_location": "Bogota, United States",
            "record": "14-3",
            "team_position": 1,
            "rating": 7.07,
            "lat": 40.8762106,
            "lng": -74.0298621
        },
        {
            "name": "Serna, Nicolas",
            "team": "Drexel",
            "city": "Bogota",
            "country": "Colombia",
            "display_location": "Bogota, Colombia",
            "record": "10-8",
            "team_position": 2,
            "rating": 6.67,
            "lat": 4.6533816,
            "lng": -74.0836333
        },
        {
            "name": "Lopez, Jose Andres",
            "team": "Drexel",
            "city": "San Salvador",
            "country": "El Salvador",
            "display_location": "San Salvador, El Salvador",
            "record": "9-8",
            "team_position": 3,
            "rating": 6.48,
            "lat": 13.6989939,
            "lng": -89.1914249
        },
        {
            "name": "Pollak Pelbart, Yuri",
            "team": "Drexel",
            "city": "",
            "country": "United States",
            "display_location": "United States",
            "record": "11-7",
            "team_position": 4,
            "rating": 6.6,
            "lat": 39.7837304,
            "lng": -100.445882
        },
        {
            "name": "Jacobsson, Fritiof",
            "team": "Drexel",
            "city": "Kullavik",
            "country": "Sweden",
            "display_location": "Kullavik, Sweden",
            "record": "5-7",
            "team_position": 5,
            "rating": 6.5,
            "lat": 57.5441573,
            "lng": 11.9342205
        },
        {
            "name": "Krueger, Filip",
            "team": "Drexel",
            "city": "Stockholm",
            "country": "United States",
            "display_location": "Stockholm, United States",
            "record": "8-10",
            "team_position": 6,
            "rating": 6.32,
            "lat": 47.042522,
            "lng": -68.139954
        },
        {
            "name": "Heaton, Noel",
            "team": "Drexel",
            "city": "Calgary",
            "country": "Canada",
            "display_location": "Calgary, Canada",
            "record": "13-5",
            "team_position": 7,
            "rating": 6.39,
            "lat": 51.0456064,
            "lng": -114.057541
        },
        {
            "name": "Wiltshire, Shomari",
            "team": "Drexel",
            "city": "Eccles Aa",
            "country": "Guyana",
            "display_location": "Eccles Aa, Guyana",
            "record": "7-7",
            "team_position": 8,
            "rating": 6.16,
            "lat": 6.7742154,
            "lng": -58.1740575
        },
        {
            "name": "Nagpal, Gautam",
            "team": "Drexel",
            "city": "Ghaziabad",
            "country": "India",
            "display_location": "Ghaziabad, India",
            "record": "6-7",
            "team_position": 9,
            "rating": 6.08,
            "lat": 28.7678881,
            "lng": 77.46066723508514
        },
        {
            "name": "Dalal, Shaan",
            "team": "Drexel",
            "city": "Mumbaai",
            "country": "United States",
            "display_location": "Mumbaai, United States",
            "record": "5-6",
            "team_position": 10,
            "rating": 5.96,
            "lat": 39.7837304,
            "lng": -100.445882
        },
        {
            "name": "Alzaatari, Hussain",
            "team": "Drexel",
            "city": "Kuwait",
            "country": "Kuwait",
            "display_location": "Kuwait, Kuwait",
            "record": "0-1",
            "team_position": 11,
            "rating": 5.97,
            "lat": 29.3796532,
            "lng": 47.9734174
        },
        {
            "name": "Abou Taleb, Nicolo",
            "team": "Drexel",
            "city": "Pelham",
            "country": "United States",
            "display_location": "Pelham, United States",
            "record": "2-1",
            "team_position": null,
            "rating": 5.51,
            "lat": 42.734534,
            "lng": -71.3245067
        },
        {
            "name": "Berry, Michael",
            "team": "Drexel",
            "city": "Johannesburg",
            "country": "South Africa",
            "display_location": "Johannesburg, South Africa",
            "record": "0-0",
            "team_position": null,
            "rating": 5.88,
            "lat": -26.205,
            "lng": 28.049722
        },
        {
            "name": "Lucente, Matthew",
            "team": "Drexel",
            "city": "Auckland",
            "country": "New Zealand",
            "display_location": "Auckland, New Zealand",
            "record": "2-2",
            "team_position": null,
            "rating": 6.04,
            "lat": -36.852095,
            "lng": 174.7631803
        },
        {
            "name": "Qasim, Haris",
            "team": "Drexel",
            "city": "Lahore",
            "country": "Pakistan",
            "display_location": "Lahore, Pakistan",
            "record": "2-4",
            "team_position": null,
            "rating": 6.66,
            "lat": 31.5656822,
            "lng": 74.3141829
        },
        {
            "name": "Chotrani, Veer",
            "team": "Cornell",
            "city": "",
            "country": "India",
            "display_location": "India",
            "record": "9-8",
            "team_position": 1,
            "rating": 7.13,
            "lat": 22.3511148,
            "lng": 78.6677428
        },
        {
            "name": "Liang, Aaron",
            "team": "Cornell",
            "city": "Singapore",
            "country": "Singapore",
            "display_location": "Singapore, Singapore",
            "record": "5-11",
            "team_position": 2,
            "rating": 6.51,
            "lat": 1.357107,
            "lng": 103.8194992
        },
        {
            "name": "Sareen, Arnaav",
            "team": "Cornell",
            "city": "Pune",
            "country": "India",
            "display_location": "Pune, India",
            "record": "10-7",
            "team_position": 3,
            "rating": 6.54,
            "lat": 18.5213738,
            "lng": 73.8545071
        },
        {
            "name": "Yager, Spencer",
            "team": "Cornell",
            "city": "Villanova",
            "country": "United States",
            "display_location": "Villanova, United States",
            "record": "9-8",
            "team_position": 4,
            "rating": 6.48,
            "lat": 40.0373323,
            "lng": -75.3490769
        },
        {
            "name": "Khan, Humza A",
            "team": "Cornell",
            "city": "Dayton",
            "country": "United States",
            "display_location": "Dayton, United States",
            "record": "5-11",
            "team_position": 5,
            "rating": 6.23,
            "lat": 39.7589478,
            "lng": -84.1916069
        },
        {
            "name": "Iyer, Rohan",
            "team": "Cornell",
            "city": "Cincinnati",
            "country": "United States",
            "display_location": "Cincinnati, United States",
            "record": "6-8",
            "team_position": 6,
            "rating": 6.32,
            "lat": 39.1014537,
            "lng": -84.5124602
        },
        {
            "name": "Punjabi, Tanay",
            "team": "Cornell",
            "city": "Mumbai",
            "country": "India",
            "display_location": "Mumbai, India",
            "record": "6-8",
            "team_position": 7,
            "rating": 6.19,
            "lat": 18.9733536,
            "lng": 72.82810491917377
        },
        {
            "name": "Huberman, Morgan",
            "team": "Cornell",
            "city": "New York",
            "country": "United States",
            "display_location": "New York, United States",
            "record": "6-9",
            "team_position": 8,
            "rating": 6.16,
            "lat": 40.7127281,
            "lng": -74.0060152
        },
        {
            "name": "Goth Errington, Nicholas",
            "team": "Cornell",
            "city": "Bromma",
            "country": "Sweden",
            "display_location": "Bromma, Sweden",
            "record": "8-7",
            "team_position": 9,
            "rating": 6.18,
            "lat": 59.339769,
            "lng": 17.9395411
        },
        {
            "name": "Pandole, Jeh",
            "team": "Cornell",
            "city": "Mumbai",
            "country": "India",
            "display_location": "Mumbai, India",
            "record": "1-0",
            "team_position": 10,
            "rating": 5.79,
            "lat": 18.9733536,
            "lng": 72.82810491917377
        },
        {
            "name": "Stein, Brent",
            "team": "Cornell",
            "city": "Paradise Valley",
            "country": "United States",
            "display_location": "Paradise Valley, United States",
            "record": "3-2",
            "team_position": 11,
            "rating": 5.62,
            "lat": 33.5428006,
            "lng": -111.9556001
        },
        {
            "name": "Gopalakrishnan, Mukunth",
            "team": "Cornell",
            "city": "Fremont",
            "country": "United States",
            "display_location": "Fremont, United States",
            "record": "1-1",
            "team_position": null,
            "rating": 6.21,
            "lat": 37.5482697,
            "lng": -121.988571
        },
        {
            "name": "Langdon, William M",
            "team": "Cornell",
            "city": "Maitland",
            "country": "United States",
            "display_location": "Maitland, United States",
            "record": "0-0",
            "team_position": null,
            "rating": 5.54,
            "lat": 28.6275253,
            "lng": -81.3656419
        },
        {
            "name": "Morneau, Edward",
            "team": "Cornell",
            "city": "Toronto",
            "country": "Canada",
            "display_location": "Toronto, Canada",
            "record": "1-1",
            "team_position": null,
            "rating": 5.65,
            "lat": 43.6534817,
            "lng": -79.3839347
        },
        {
            "name": "Raghavan, Shreemann",
            "team": "Cornell",
            "city": "Chennai",
            "country": "India",
            "display_location": "Chennai, India",
            "record": "3-2",
            "team_position": null,
            "rating": 6.22,
            "lat": 13.0836939,
            "lng": 80.270186
        },
        {
            "name": "Robinson, Nicholas J",
            "team": "Cornell",
            "city": "Locust Valley",
            "country": "United States",
            "display_location": "Locust Valley, United States",
            "record": "3-5",
            "team_position": null,
            "rating": 6.19,
            "lat": 40.8757712,
            "lng": -73.5971927
        },
        {
            "name": "Sarbinowski, William",
            "team": "Cornell",
            "city": "Darien",
            "country": "United States",
            "display_location": "Darien, United States",
            "record": "0-0",
            "team_position": null,
            "rating": 5.89,
            "lat": 41.0787079,
            "lng": -73.4692873
        },
        {
            "name": "Sawyers, Robert",
            "team": "Cornell",
            "city": "New York",
            "country": "United States",
            "display_location": "New York, United States",
            "record": "1-0",
            "team_position": null,
            "rating": 5.47,
            "lat": 40.7127281,
            "lng": -74.0060152
        },
        {
            "name": "Elbarbary, Karim",
            "team": "Princeton",
            "city": "Cairo",
            "country": "Egypt",
            "display_location": "Cairo, Egypt",
            "record": "9-5",
            "team_position": 2,
            "rating": 6.91,
            "lat": 30.0443879,
            "lng": 31.2357257
        },
        {
            "name": "Rosini, Thomas P",
            "team": "Princeton",
            "city": "Gladwyne",
            "country": "United States",
            "display_location": "Gladwyne, United States",
            "record": "9-6",
            "team_position": 3,
            "rating": 6.77,
            "lat": 40.0397304,
            "lng": -75.2791788
        },
        {
            "name": "Wael, Ahmed",
            "team": "Princeton",
            "city": "Cairo",
            "country": "Egypt",
            "display_location": "Cairo, Egypt",
            "record": "4-8",
            "team_position": 4,
            "rating": 6.54,
            "lat": 30.0443879,
            "lng": 31.2357257
        },
        {
            "name": "Khalil, Hassan",
            "team": "Princeton",
            "city": "Solihull",
            "country": "England",
            "display_location": "Solihull, England",
            "record": "10-5",
            "team_position": 5,
            "rating": 6.5,
            "lat": 52.4130189,
            "lng": -1.7768935
        },
        {
            "name": "Cho, Alastair S",
            "team": "Princeton",
            "city": "Reisterstown",
            "country": "United States",
            "display_location": "Reisterstown, United States",
            "record": "12-3",
            "team_position": 6,
            "rating": 6.75,
            "lat": 39.4586723,
            "lng": -76.81853758947369
        },
        {
            "name": "Ahmed, Zain R",
            "team": "Princeton",
            "city": "Morgan Hill",
            "country": "United States",
            "display_location": "Morgan Hill, United States",
            "record": "9-3",
            "team_position": 7,
            "rating": 6.55,
            "lat": 37.130408,
            "lng": -121.6544974
        },
        {
            "name": "Lam, Gordon",
            "team": "Princeton",
            "city": "Lake Oswego",
            "country": "United States",
            "display_location": "Lake Oswego, United States",
            "record": "8-5",
            "team_position": 8,
            "rating": 6.63,
            "lat": 45.4206749,
            "lng": -122.670649
        },
        {
            "name": "Sosa, Federico",
            "team": "Princeton",
            "city": "Kent",
            "country": "Mexico",
            "display_location": "Kent, Mexico",
            "record": "9-3",
            "team_position": 9,
            "rating": 6.42,
            "lat": 19.4326296,
            "lng": -99.1331785
        },
        {
            "name": "Agarwal, Avi",
            "team": "Princeton",
            "city": "Monroe Township",
            "country": "United States",
            "display_location": "Monroe Township, United States",
            "record": "6-2",
            "team_position": 10,
            "rating": 6.61,
            "lat": 43.690677199999996,
            "lng": -85.74073206987296
        },
        {
            "name": "Beeson, David",
            "team": "Princeton",
            "city": "Riverside",
            "country": "United States",
            "display_location": "Riverside, United States",
            "record": "6-1",
            "team_position": 11,
            "rating": 6.47,
            "lat": 33.9824949,
            "lng": -117.374238
        },
        {
            "name": "Mukherjee, Arin J.",
            "team": "Princeton",
            "city": "Princeton",
            "country": "United States",
            "display_location": "Princeton, United States",
            "record": "2-0",
            "team_position": 12,
            "rating": 6.35,
            "lat": 40.3496953,
            "lng": -74.6597376
        },
        {
            "name": "Ezratty, William",
            "team": "Princeton",
            "city": "Greenwich",
            "country": "United States",
            "display_location": "Greenwich, United States",
            "record": "3-0",
            "team_position": 13,
            "rating": 6.23,
            "lat": 41.0264862,
            "lng": -73.6284598
        },
        {
            "name": "Kontulis, James",
            "team": "Princeton",
            "city": "New Canaan",
            "country": "United States",
            "display_location": "New Canaan, United States",
            "record": "1-0",
            "team_position": 14,
            "rating": 5.55,
            "lat": 41.146763,
            "lng": -73.4948446
        },
        {
            "name": "Chiang, Sam H",
            "team": "Princeton",
            "city": "New York",
            "country": "United States",
            "display_location": "New York, United States",
            "record": "1-0",
            "team_position": 15,
            "rating": 5.09,
            "lat": 40.7127281,
            "lng": -74.0060152
        },
        {
            "name": "Bruno, Kion",
            "team": "Princeton",
            "city": "Westport",
            "country": "United States",
            "display_location": "Westport, United States",
            "record": "0-0",
            "team_position": null,
            "rating": 5.24,
            "lat": 41.1414855,
            "lng": -73.3578955
        },
        {
            "name": "Khatri, Maaz",
            "team": "Princeton",
            "city": "Dubai",
            "country": "Australia",
            "display_location": "Dubai, Australia",
            "record": "1-0",
            "team_position": null,
            "rating": 6.47,
            "lat": 25.231477499999997,
            "lng": 55.19435079998544
        },
        {
            "name": "Mawji, Daelum",
            "team": "Princeton",
            "city": "Naples",
            "country": "United States",
            "display_location": "Naples, United States",
            "record": "5-8",
            "team_position": null,
            "rating": 6.74,
            "lat": 26.1421976,
            "lng": -81.7942944
        },
        {
            "name": "Hussein, Aly",
            "team": "Virginia",
            "city": "Marion",
            "country": "United States",
            "display_location": "Marion, United States",
            "record": "16-1",
            "team_position": 1,
            "rating": 7.2,
            "lat": 38.6477381,
            "lng": -88.9232112
        },
        {
            "name": "El Torkey, Omar",
            "team": "Virginia",
            "city": "Egypt",
            "country": "United States",
            "display_location": "Egypt, United States",
            "record": "15-3",
            "team_position": 2,
            "rating": 6.97,
            "lat": 35.8681298,
            "lng": -90.9456751
        },
        {
            "name": "Dinana, Taha",
            "team": "Virginia",
            "city": "Dobbs Ferry",
            "country": "United States",
            "display_location": "Dobbs Ferry, United States",
            "record": "11-3",
            "team_position": 3,
            "rating": 6.68,
            "lat": 41.0145418,
            "lng": -73.872635
        },
        {
            "name": "Tew, John Paul",
            "team": "Virginia",
            "city": "Cincinnati",
            "country": "United States",
            "display_location": "Cincinnati, United States",
            "record": "10-7",
            "team_position": 4,
            "rating": 6.68,
            "lat": 39.1014537,
            "lng": -84.5124602
        },
        {
            "name": "Little, Cullen F",
            "team": "Virginia",
            "city": "Baltimore",
            "country": "United States",
            "display_location": "Baltimore, United States",
            "record": "14-5",
            "team_position": 5,
            "rating": 6.48,
            "lat": 39.2908816,
            "lng": -76.610759
        },
        {
            "name": "Baldini, CJ",
            "team": "Virginia",
            "city": "West Hartford",
            "country": "United States",
            "display_location": "West Hartford, United States",
            "record": "11-8",
            "team_position": 6,
            "rating": 6.27,
            "lat": 41.7620447,
            "lng": -72.7420399
        },
        {
            "name": "Hajek, Francis E.",
            "team": "Virginia",
            "city": "Charlottesville",
            "country": "United States",
            "display_location": "Charlottesville, United States",
            "record": "10-7",
            "team_position": 7,
            "rating": 6.25,
            "lat": 38.029306,
            "lng": -78.4766781
        },
        {
            "name": "McIntyre, Myles",
            "team": "Virginia",
            "city": "Andover",
            "country": "United States",
            "display_location": "Andover, United States",
            "record": "10-3",
            "team_position": 8,
            "rating": 6.39,
            "lat": 45.2332985,
            "lng": -93.2913405
        },
        {
            "name": "Mackesy, Tyler S.",
            "team": "Virginia",
            "city": "Bronxville",
            "country": "United States",
            "display_location": "Bronxville, United States",
            "record": "6-11",
            "team_position": 9,
            "rating": 6.15,
            "lat": 40.9381544,
            "lng": -73.8320784
        },
        {
            "name": "Durfee, Teddy",
            "team": "Virginia",
            "city": "Bedford",
            "country": "United States",
            "display_location": "Bedford, United States",
            "record": "8-4",
            "team_position": 10,
            "rating": 6.14,
            "lat": 40.0271453,
            "lng": -78.5237447
        },
        {
            "name": "Braff, Charles E",
            "team": "Virginia",
            "city": "West Palm Beach",
            "country": "United States",
            "display_location": "West Palm Beach, United States",
            "record": "8-2",
            "team_position": 11,
            "rating": 6.06,
            "lat": 26.715364,
            "lng": -80.0532942
        },
        {
            "name": "Velazquez, Maxwell",
            "team": "Virginia",
            "city": "Brooklyn",
            "country": "United States",
            "display_location": "Brooklyn, United States",
            "record": "5-1",
            "team_position": 12,
            "rating": 6.39,
            "lat": 40.6526006,
            "lng": -73.9497211
        },
        {
            "name": "Barr, Andrew T",
            "team": "Virginia",
            "city": "Bloomfield Hills",
            "country": "United States",
            "display_location": "Bloomfield Hills, United States",
            "record": "5-0",
            "team_position": 13,
            "rating": 5.98,
            "lat": 42.583645,
            "lng": -83.2454883
        },
        {
            "name": "Keller, Patrick",
            "team": "Virginia",
            "city": "Rye",
            "country": "United States",
            "display_location": "Rye, United States",
            "record": "4-0",
            "team_position": 14,
            "rating": 6.07,
            "lat": 40.9808209,
            "lng": -73.684294
        },
        {
            "name": "Castiaux, Harold",
            "team": "Columbia",
            "city": "Wavre La Zone",
            "country": "Belgium",
            "display_location": "Wavre La Zone, Belgium",
            "record": "6-9",
            "team_position": 1,
            "rating": 6.63,
            "lat": 50.6402809,
            "lng": 4.6667145
        },
        {
            "name": "Shah, Chaitanya",
            "team": "Columbia",
            "city": "Mumbai",
            "country": "India",
            "display_location": "Mumbai, India",
            "record": "5-9",
            "team_position": 2,
            "rating": 6.39,
            "lat": 18.9733536,
            "lng": 72.82810491917377
        },
        {
            "name": "Goad, Adam",
            "team": "Columbia",
            "city": "Carlisle",
            "country": "England",
            "display_location": "Carlisle, England",
            "record": "5-9",
            "team_position": 3,
            "rating": 6.49,
            "lat": 54.8948478,
            "lng": -2.9362311
        },
        {
            "name": "Nam, Zach",
            "team": "Columbia",
            "city": "New York",
            "country": "United States",
            "display_location": "New York, United States",
            "record": "10-5",
            "team_position": 4,
            "rating": 6.41,
            "lat": 40.7127281,
            "lng": -74.0060152
        },
        {
            "name": "Smith, Franklyn",
            "team": "Columbia",
            "city": "Brighton",
            "country": "England",
            "display_location": "Brighton, England",
            "record": "3-8",
            "team_position": 5,
            "rating": 6.56,
            "lat": 50.8214626,
            "lng": -0.1400561
        },
        {
            "name": "Rau, Rutvik",
            "team": "Columbia",
            "city": "Mumbai",
            "country": "India",
            "display_location": "Mumbai, India",
            "record": "7-7",
            "team_position": 6,
            "rating": 6.39,
            "lat": 18.9733536,
            "lng": 72.82810491917377
        },
        {
            "name": "Bulbulia,  Jacob",
            "team": "Columbia",
            "city": "Short Hills",
            "country": "United States",
            "display_location": "Short Hills, United States",
            "record": "8-7",
            "team_position": 7,
            "rating": 6.39,
            "lat": 40.7478786,
            "lng": -74.3254271
        },
        {
            "name": "Saxena, Sameer",
            "team": "Columbia",
            "city": "Newtown Square",
            "country": "United States",
            "display_location": "Newtown Square, United States",
            "record": "7-8",
            "team_position": 8,
            "rating": 6.18,
            "lat": 39.9868117,
            "lng": -75.4007633
        },
        {
            "name": "Chen, Ryan A.",
            "team": "Columbia",
            "city": "Bedford",
            "country": "United States",
            "display_location": "Bedford, United States",
            "record": "8-7",
            "team_position": 9,
            "rating": 6.29,
            "lat": 40.0271453,
            "lng": -78.5237447
        },
        {
            "name": "De La Mora, Gonzalo",
            "team": "Columbia",
            "city": "New Haven",
            "country": "United States",
            "display_location": "New Haven, United States",
            "record": "3-4",
            "team_position": 10,
            "rating": 5.96,
            "lat": 41.3082138,
            "lng": -72.9250518
        },
        {
            "name": "Jung, Andrew",
            "team": "Columbia",
            "city": "San Diego",
            "country": "United States",
            "display_location": "San Diego, United States",
            "record": "2-0",
            "team_position": 11,
            "rating": 5.78,
            "lat": 32.7174202,
            "lng": -117.162772
        },
        {
            "name": "Anand, Sankalp",
            "team": "Columbia",
            "city": "New Delhi",
            "country": "India",
            "display_location": "New Delhi, India",
            "record": "0-0",
            "team_position": null,
            "rating": 1.5,
            "lat": 28.6138954,
            "lng": 77.2090057
        },
        {
            "name": "Camiener, Hugh",
            "team": "Columbia",
            "city": "Birmingham",
            "country": "United States",
            "display_location": "Birmingham, United States",
            "record": "0-0",
            "team_position": null,
            "rating": 1.5,
            "lat": 33.5206824,
            "lng": -86.8024326
        },
        {
            "name": "Morkel, Adam",
            "team": "Columbia",
            "city": "",
            "country": "South Africa",
            "display_location": "South Africa",
            "record": "0-0",
            "team_position": null,
            "rating": 5.86,
            "lat": -28.8166236,
            "lng": 24.991639
        },
        {
            "name": "Sherif Atta, Adam",
            "team": "Columbia",
            "city": "",
            "country": "United States",
            "display_location": "United States",
            "record": "0-3",
            "team_position": null,
            "rating": 1.5,
            "lat": 39.7837304,
            "lng": -100.445882
        },
        {
            "name": "Yun, Gabriel",
            "team": "Columbia",
            "city": "Richmond",
            "country": "Canada",
            "display_location": "Richmond, Canada",
            "record": "0-1",
            "team_position": null,
            "rating": 5.87,
            "lat": 49.163168,
            "lng": -123.137414
        },
        {
            "name": "Yuzpe, Alex",
            "team": "Columbia",
            "city": "Toronto",
            "country": "Canada",
            "display_location": "Toronto, Canada",
            "record": "1-0",
            "team_position": null,
            "rating": 6.07,
            "lat": 43.6534817,
            "lng": -79.3839347
        },
        {
            "name": "Bell, Jack",
            "team": "Dartmouth College",
            "city": "Wellesley",
            "country": "United States",
            "display_location": "Wellesley, United States",
            "record": "3-14",
            "team_position": 1,
            "rating": 6.27,
            "lat": 42.2964859,
            "lng": -71.2925571
        },
        {
            "name": "Aube, William (Mac)",
            "team": "Dartmouth College",
            "city": "Rye",
            "country": "United States",
            "display_location": "Rye, United States",
            "record": "9-8",
            "team_position": 2,
            "rating": 6.43,
            "lat": 40.9808209,
            "lng": -73.684294
        },
        {
            "name": "Shah, Christian",
            "team": "Dartmouth College",
            "city": "Villanova",
            "country": "United States",
            "display_location": "Villanova, United States",
            "record": "7-10",
            "team_position": 3,
            "rating": 6.5,
            "lat": 40.0373323,
            "lng": -75.3490769
        },
        {
            "name": "Zachary, Chris",
            "team": "Dartmouth College",
            "city": "Summit",
            "country": "United States",
            "display_location": "Summit, United States",
            "record": "8-9",
            "team_position": 4,
            "rating": 6.29,
            "lat": 41.1457902,
            "lng": -81.5333603
        },
        {
            "name": "Campbell, Quintin A",
            "team": "Dartmouth College",
            "city": "Haverford",
            "country": "United States",
            "display_location": "Haverford, United States",
            "record": "6-11",
            "team_position": 5,
            "rating": 6.22,
            "lat": 40.0131672,
            "lng": -75.2943516
        },
        {
            "name": "White, Lucan",
            "team": "Dartmouth College",
            "city": "Belmont",
            "country": "United States",
            "display_location": "Belmont, United States",
            "record": "7-10",
            "team_position": 6,
            "rating": 6.09,
            "lat": 40.0057737,
            "lng": -81.0097516
        },
        {
            "name": "Feldman, Felix",
            "team": "Dartmouth College",
            "city": "San Francisco",
            "country": "United States",
            "display_location": "San Francisco, United States",
            "record": "7-9",
            "team_position": 7,
            "rating": 6.04,
            "lat": 37.7792588,
            "lng": -122.4193286
        },
        {
            "name": "Khandelwal, Aryan",
            "team": "Dartmouth College",
            "city": "Indore",
            "country": "India",
            "display_location": "Indore, India",
            "record": "8-7",
            "team_position": 8,
            "rating": 6.08,
            "lat": 22.7203616,
            "lng": 75.8681996
        },
        {
            "name": "Bhavsar, Auggie H",
            "team": "Dartmouth College",
            "city": "New York",
            "country": "United States",
            "display_location": "New York, United States",
            "record": "8-7",
            "team_position": 9,
            "rating": 6.06,
            "lat": 40.7127281,
            "lng": -74.0060152
        },
        {
            "name": "Klein, Warren",
            "team": "Dartmouth College",
            "city": "Greenwich",
            "country": "United States",
            "display_location": "Greenwich, United States",
            "record": "4-4",
            "team_position": 10,
            "rating": 5.92,
            "lat": 41.0264862,
            "lng": -73.6284598
        },
        {
            "name": "Gildea, Ned",
            "team": "Dartmouth College",
            "city": "Stevenson",
            "country": "United States",
            "display_location": "Stevenson, United States",
            "record": "0-0",
            "team_position": 11,
            "rating": 5.82,
            "lat": 34.8686934,
            "lng": -85.83942
        },
        {
            "name": "Rubin, David C.",
            "team": "Dartmouth College",
            "city": "Brookline",
            "country": "United States",
            "display_location": "Brookline, United States",
            "record": "2-4",
            "team_position": 12,
            "rating": 6.2,
            "lat": 42.3329021,
            "lng": -71.1187421
        },
        {
            "name": "Thakkar, Rana K",
            "team": "Dartmouth College",
            "city": "Dallas",
            "country": "United States",
            "display_location": "Dallas, United States",
            "record": "0-0",
            "team_position": 12,
            "rating": 5.9,
            "lat": 32.7762719,
            "lng": -96.7968559
        },
        {
            "name": "Mattson, Charles F.",
            "team": "Dartmouth College",
            "city": "Rye",
            "country": "United States",
            "display_location": "Rye, United States",
            "record": "0-0",
            "team_position": 13,
            "rating": 1.5,
            "lat": 40.9808209,
            "lng": -73.684294
        },
        {
            "name": "Joyce, Graham",
            "team": "Dartmouth College",
            "city": "Haverford",
            "country": "United States",
            "display_location": "Haverford, United States",
            "record": "0-0",
            "team_position": 15,
            "rating": 5.17,
            "lat": 40.0131672,
            "lng": -75.2943516
        },
        {
            "name": "Kang, Christopher",
            "team": "Dartmouth College",
            "city": "Vienna",
            "country": "United States",
            "display_location": "Vienna, United States",
            "record": "0-0",
            "team_position": 16,
            "rating": 1.5,
            "lat": 37.4153295,
            "lng": -88.8978435
        },
        {
            "name": "Deverill, Dylan",
            "team": "Western Ontario",
            "city": "Cambridge",
            "country": "Canada",
            "display_location": "Cambridge, Canada",
            "record": "5-5",
            "team_position": 1,
            "rating": 6.59,
            "lat": 43.3600536,
            "lng": -80.3123023
        },
        {
            "name": "Mendes, Antonio",
            "team": "Western Ontario",
            "city": "Calgary",
            "country": "Canada",
            "display_location": "Calgary, Canada",
            "record": "4-6",
            "team_position": 4,
            "rating": 6.23,
            "lat": 51.0456064,
            "lng": -114.057541
        },
        {
            "name": "Kay, Josh",
            "team": "Western Ontario",
            "city": "Toronto",
            "country": "Canada",
            "display_location": "Toronto, Canada",
            "record": "7-5",
            "team_position": 7,
            "rating": 5.99,
            "lat": 43.6534817,
            "lng": -79.3839347
        },
        {
            "name": "Khan, Amin",
            "team": "Western Ontario",
            "city": "Windsor",
            "country": "Canada",
            "display_location": "Windsor, Canada",
            "record": "9-4",
            "team_position": 8,
            "rating": 6.1,
            "lat": 42.2858536,
            "lng": -82.9780695
        },
        {
            "name": "Boulanger, Ben",
            "team": "Western Ontario",
            "city": "Calgary",
            "country": "Canada",
            "display_location": "Calgary, Canada",
            "record": "5-7",
            "team_position": 9,
            "rating": 5.94,
            "lat": 51.0456064,
            "lng": -114.057541
        },
        {
            "name": "Manley, Griffin M",
            "team": "Western Ontario",
            "city": "Toronto",
            "country": "Canada",
            "display_location": "Toronto, Canada",
            "record": "6-5",
            "team_position": 10,
            "rating": 5.88,
            "lat": 43.6534817,
            "lng": -79.3839347
        },
        {
            "name": "Bhangoo, Jagroop",
            "team": "Western Ontario",
            "city": "Lakeshore",
            "country": "Canada",
            "display_location": "Lakeshore, Canada",
            "record": "0-2",
            "team_position": null,
            "rating": 5.78,
            "lat": 42.3038299,
            "lng": -82.8189267
        },
        {
            "name": "El Adly, Nour",
            "team": "Western Ontario",
            "city": "Cairo",
            "country": "Egypt",
            "display_location": "Cairo, Egypt",
            "record": "1-0",
            "team_position": null,
            "rating": 4.98,
            "lat": 30.0443879,
            "lng": 31.2357257
        },
        {
            "name": "Eltorgman, Salaheldin",
            "team": "Western Ontario",
            "city": "Toronto",
            "country": "Canada",
            "display_location": "Toronto, Canada",
            "record": "0-3",
            "team_position": null,
            "rating": 6.6,
            "lat": 43.6534817,
            "lng": -79.3839347
        },
        {
            "name": "Huq, Eesa",
            "team": "Western Ontario",
            "city": "Niagara Falls",
            "country": "Canada",
            "display_location": "Niagara Falls, Canada",
            "record": "0-0",
            "team_position": null,
            "rating": 5.48,
            "lat": 43.1065603,
            "lng": -79.0639039
        },
        {
            "name": "Khot, Arin",
            "team": "Western Ontario",
            "city": "Mumbai",
            "country": "India",
            "display_location": "Mumbai, India",
            "record": "0-0",
            "team_position": null,
            "rating": 5.87,
            "lat": 18.9733536,
            "lng": 72.82810491917377
        },
        {
            "name": "Liu, Morven",
            "team": "Western Ontario",
            "city": "Vancouver",
            "country": "Canada",
            "display_location": "Vancouver, Canada",
            "record": "0-0",
            "team_position": null,
            "rating": 5.49,
            "lat": 49.2608724,
            "lng": -123.113952
        },
        {
            "name": "Schafer, Rio",
            "team": "Western Ontario",
            "city": "Victoria",
            "country": "Canada",
            "display_location": "Victoria, Canada",
            "record": "2-3",
            "team_position": null,
            "rating": 6.01,
            "lat": 48.4283182,
            "lng": -123.364953
        },
        {
            "name": "Shah, Sujai",
            "team": "Western Ontario",
            "city": "London",
            "country": "Canada",
            "display_location": "London, Canada",
            "record": "0-0",
            "team_position": null,
            "rating": 5.26,
            "lat": 42.9832406,
            "lng": -81.243372
        },
        {
            "name": "Pal, Udai",
            "team": "Williams College",
            "city": "Hillsborough",
            "country": "United States",
            "display_location": "Hillsborough, United States",
            "record": "13-8",
            "team_position": 1,
            "rating": 6.36,
            "lat": 27.9184543,
            "lng": -82.3488057
        },
        {
            "name": "Evans, William H",
            "team": "Williams College",
            "city": "New York",
            "country": "United States",
            "display_location": "New York, United States",
            "record": "14-7",
            "team_position": 2,
            "rating": 6.39,
            "lat": 40.7127281,
            "lng": -74.0060152
        },
        {
            "name": "Minnis, Andrew",
            "team": "Williams College",
            "city": "Bryan Mawr",
            "country": "United States",
            "display_location": "Bryan Mawr, United States",
            "record": "8-16",
            "team_position": 3,
            "rating": 6.25,
            "lat": 34.0100895,
            "lng": -84.157935
        },
        {
            "name": "Leavy, Asher",
            "team": "Williams College",
            "city": "Philadelphia",
            "country": "United States",
            "display_location": "Philadelphia, United States",
            "record": "17-7",
            "team_position": 4,
            "rating": 6.32,
            "lat": 39.9527237,
            "lng": -75.1635262
        },
        {
            "name": "Lee, Jack",
            "team": "Williams College",
            "city": "San Francisco",
            "country": "United States",
            "display_location": "San Francisco, United States",
            "record": "16-6",
            "team_position": 5,
            "rating": 6.4,
            "lat": 37.7792588,
            "lng": -122.4193286
        },
        {
            "name": "Henderson, Pierce P",
            "team": "Williams College",
            "city": "Greenwich",
            "country": "United States",
            "display_location": "Greenwich, United States",
            "record": "14-4",
            "team_position": 6,
            "rating": 5.96,
            "lat": 41.0264862,
            "lng": -73.6284598
        },
        {
            "name": "Akbari, Alex",
            "team": "Williams College",
            "city": "Mclean",
            "country": "United States",
            "display_location": "Mclean, United States",
            "record": "17-6",
            "team_position": 7,
            "rating": 6.07,
            "lat": 40.4631789,
            "lng": -88.8196613
        },
        {
            "name": "Darnell, Cameron",
            "team": "Williams College",
            "city": "Bethesda",
            "country": "United States",
            "display_location": "Bethesda, United States",
            "record": "8-5",
            "team_position": 8,
            "rating": 5.91,
            "lat": 38.98127255,
            "lng": -77.12335871396549
        },
        {
            "name": "Nicholson, John P",
            "team": "Williams College",
            "city": "Greenwich",
            "country": "United States",
            "display_location": "Greenwich, United States",
            "record": "12-11",
            "team_position": 9,
            "rating": 5.9,
            "lat": 41.0264862,
            "lng": -73.6284598
        },
        {
            "name": "Merrill, Charles",
            "team": "Williams College",
            "city": "Locust Valley",
            "country": "United States",
            "display_location": "Locust Valley, United States",
            "record": "10-5",
            "team_position": 10,
            "rating": 5.91,
            "lat": 40.8757712,
            "lng": -73.5971927
        },
        {
            "name": "Lee, Andrew J.",
            "team": "Williams College",
            "city": "Weston",
            "country": "United States",
            "display_location": "Weston, United States",
            "record": "12-2",
            "team_position": 11,
            "rating": 5.87,
            "lat": 42.3667625,
            "lng": -71.3031132
        },
        {
            "name": "Lee, Leonard",
            "team": "Williams College",
            "city": "Singapore",
            "country": "England",
            "display_location": "Singapore, England",
            "record": "1-3",
            "team_position": 12,
            "rating": 5.57,
            "lat": 50.9868448,
            "lng": -1.4937227254686638
        },
        {
            "name": "Syed, Rafay M.",
            "team": "Williams College",
            "city": "Rye",
            "country": "United States",
            "display_location": "Rye, United States",
            "record": "4-3",
            "team_position": 13,
            "rating": 5.93,
            "lat": 40.9808209,
            "lng": -73.684294
        },
        {
            "name": "Ramirez, Gabriel",
            "team": "Williams College",
            "city": "Newark",
            "country": "United States",
            "display_location": "Newark, United States",
            "record": "0-5",
            "team_position": 14,
            "rating": 5.01,
            "lat": 40.735657,
            "lng": -74.1723667
        },
        {
            "name": "Malik, Abdul",
            "team": "Chatham",
            "city": "Quetta",
            "country": "Pakistan",
            "display_location": "Quetta, Pakistan",
            "record": "5-8",
            "team_position": 1,
            "rating": 6.51,
            "lat": 30.1916569,
            "lng": 67.0006542
        },
        {
            "name": "Raza, Muhammad Hassaan",
            "team": "Chatham",
            "city": "Lahore",
            "country": "Pakistan",
            "display_location": "Lahore, Pakistan",
            "record": "7-6",
            "team_position": 2,
            "rating": 6.27,
            "lat": 31.5656822,
            "lng": 74.3141829
        },
        {
            "name": "Vaca Sanchez, Sebastian",
            "team": "Chatham",
            "city": "Ambato",
            "country": "Ecuador",
            "display_location": "Ambato, Ecuador",
            "record": "6-7",
            "team_position": 3,
            "rating": 6.29,
            "lat": -1.2422413,
            "lng": -78.6287594
        },
        {
            "name": "Nalliah, Jared",
            "team": "Chatham",
            "city": "Petaling Jaya",
            "country": "Malaysia",
            "display_location": "Petaling Jaya, Malaysia",
            "record": "5-7",
            "team_position": 4,
            "rating": 6.18,
            "lat": 3.0988792,
            "lng": 101.6454202
        },
        {
            "name": "Rasheed, Owais",
            "team": "Chatham",
            "city": "Karachi",
            "country": "Pakistan",
            "display_location": "Karachi, Pakistan",
            "record": "2-5",
            "team_position": 5,
            "rating": 6.12,
            "lat": 24.8546842,
            "lng": 67.0207055
        },
        {
            "name": "Carranza, Agustin",
            "team": "Chatham",
            "city": "Santiago",
            "country": "England",
            "display_location": "Santiago, England",
            "record": "8-5",
            "team_position": 6,
            "rating": 6.14,
            "lat": 53.8001352,
            "lng": -1.5398445
        },
        {
            "name": "Oliveira, Lucas",
            "team": "Chatham",
            "city": "Belo Horizonte",
            "country": "Brazil",
            "display_location": "Belo Horizonte, Brazil",
            "record": "5-7",
            "team_position": 7,
            "rating": 5.88,
            "lat": -19.9227318,
            "lng": -43.9450948
        },
        {
            "name": "Prabhu, Navaneeth",
            "team": "Chatham",
            "city": "",
            "country": "India",
            "display_location": "India",
            "record": "5-0",
            "team_position": 8,
            "rating": 5.96,
            "lat": 22.3511148,
            "lng": 78.6677428
        },
        {
            "name": "Cruz, Alejandro",
            "team": "Chatham",
            "city": "Bogota",
            "country": "Colombia",
            "display_location": "Bogota, Colombia",
            "record": "7-5",
            "team_position": 9,
            "rating": 5.85,
            "lat": 4.6533816,
            "lng": -74.0836333
        },
        {
            "name": "Jafry, Haidar A.",
            "team": "Chatham",
            "city": "San Ramon",
            "country": "United States",
            "display_location": "San Ramon, United States",
            "record": "8-4",
            "team_position": 10,
            "rating": 5.88,
            "lat": 37.7648021,
            "lng": -121.9544387
        },
        {
            "name": "Sadek, Abdelrahman",
            "team": "Chatham",
            "city": "Cairo",
            "country": "Egypt",
            "display_location": "Cairo, Egypt",
            "record": "5-6",
            "team_position": 11,
            "rating": 5.97,
            "lat": 30.0443879,
            "lng": 31.2357257
        },
        {
            "name": "Abdelkhalik, Alaaeldin",
            "team": "Chatham",
            "city": "Cairo",
            "country": "Egypt",
            "display_location": "Cairo, Egypt",
            "record": "4-2",
            "team_position": 12,
            "rating": 5.5,
            "lat": 30.0443879,
            "lng": 31.2357257
        },
        {
            "name": "Sadek, Mohamed",
            "team": "Chatham",
            "city": "Cairo",
            "country": "Egypt",
            "display_location": "Cairo, Egypt",
            "record": "7-2",
            "team_position": 13,
            "rating": 5.81,
            "lat": 30.0443879,
            "lng": 31.2357257
        },
        {
            "name": "Poles, Brett",
            "team": "Chatham",
            "city": "Baltimore",
            "country": "United States",
            "display_location": "Baltimore, United States",
            "record": "4-0",
            "team_position": 14,
            "rating": 5.39,
            "lat": 39.2908816,
            "lng": -76.610759
        },
        {
            "name": "Beasley, Keyel C",
            "team": "Chatham",
            "city": "Pittsburgh",
            "country": "United States",
            "display_location": "Pittsburgh, United States",
            "record": "2-0",
            "team_position": 15,
            "rating": 5.06,
            "lat": 40.4416941,
            "lng": -79.9900861
        },
        {
            "name": "Nohel, Petr",
            "team": "Franklin and Marshall College",
            "city": "",
            "country": "Czech Republic",
            "display_location": "Czech Republic",
            "record": "12-8",
            "team_position": 1,
            "rating": 6.44,
            "lat": 49.7439047,
            "lng": 15.3381061
        },
        {
            "name": "Broadhurst, Kyle",
            "team": "Franklin and Marshall College",
            "city": "Pittsburgh",
            "country": "United States",
            "display_location": "Pittsburgh, United States",
            "record": "13-8",
            "team_position": 2,
            "rating": 6.46,
            "lat": 40.4416941,
            "lng": -79.9900861
        },
        {
            "name": "DiFilippo, Marco G",
            "team": "Franklin and Marshall College",
            "city": "Houston",
            "country": "United States",
            "display_location": "Houston, United States",
            "record": "11-7",
            "team_position": 3,
            "rating": 6.26,
            "lat": 29.7589382,
            "lng": -95.3676974
        },
        {
            "name": "Sprecher, Jordan D.",
            "team": "Franklin and Marshall College",
            "city": "Rye Brook",
            "country": "United States",
            "display_location": "Rye Brook, United States",
            "record": "6-10",
            "team_position": 4,
            "rating": 6.21,
            "lat": 41.0192641,
            "lng": -73.6834621
        },
        {
            "name": "Eill, Teddy",
            "team": "Franklin and Marshall College",
            "city": "Malvern",
            "country": "United States",
            "display_location": "Malvern, United States",
            "record": "8-13",
            "team_position": 5,
            "rating": 5.81,
            "lat": 41.0024095,
            "lng": -95.5851939
        },
        {
            "name": "Hinostroza, Flavio",
            "team": "Franklin and Marshall College",
            "city": "Pottstown",
            "country": "United States",
            "display_location": "Pottstown, United States",
            "record": "8-9",
            "team_position": 6,
            "rating": 5.94,
            "lat": 40.2452976,
            "lng": -75.6496424
        },
        {
            "name": "Katzer, Noah",
            "team": "Franklin and Marshall College",
            "city": "Brooklyn",
            "country": "United States",
            "display_location": "Brooklyn, United States",
            "record": "9-11",
            "team_position": 7,
            "rating": 6.01,
            "lat": 40.6526006,
            "lng": -73.9497211
        },
        {
            "name": "Freed, Samuel",
            "team": "Franklin and Marshall College",
            "city": "Wellesley",
            "country": "United States",
            "display_location": "Wellesley, United States",
            "record": "9-12",
            "team_position": 8,
            "rating": 5.72,
            "lat": 42.2964859,
            "lng": -71.2925571
        },
        {
            "name": "Tan, Evann",
            "team": "Franklin and Marshall College",
            "city": "Singapore",
            "country": "Singapore",
            "display_location": "Singapore, Singapore",
            "record": "11-10",
            "team_position": 9,
            "rating": 5.63,
            "lat": 1.357107,
            "lng": 103.8194992
        },
        {
            "name": "Agarwal, Akshat",
            "team": "Franklin and Marshall College",
            "city": "Kolkata",
            "country": "India",
            "display_location": "Kolkata, India",
            "record": "8-2",
            "team_position": 10,
            "rating": 5.58,
            "lat": 22.5726459,
            "lng": 88.3638953
        },
        {
            "name": "Hinostroza, Juanber",
            "team": "Franklin and Marshall College",
            "city": "Pottstown",
            "country": "United States",
            "display_location": "Pottstown, United States",
            "record": "2-3",
            "team_position": 11,
            "rating": 5.35,
            "lat": 40.2452976,
            "lng": -75.6496424
        },
        {
            "name": "Newcomer, Blake",
            "team": "Franklin and Marshall College",
            "city": "Greenwich",
            "country": "United States",
            "display_location": "Greenwich, United States",
            "record": "1-3",
            "team_position": 12,
            "rating": 5.39,
            "lat": 41.0264862,
            "lng": -73.6284598
        },
        {
            "name": "Betkowski, Michael",
            "team": "Franklin and Marshall College",
            "city": "Mercersburg",
            "country": "United States",
            "display_location": "Mercersburg, United States",
            "record": "4-3",
            "team_position": 13,
            "rating": 5.21,
            "lat": 39.8282214,
            "lng": -77.9037226
        },
        {
            "name": "Fournaris, Thomas R",
            "team": "Franklin and Marshall College",
            "city": "Philadelphia",
            "country": "United States",
            "display_location": "Philadelphia, United States",
            "record": "0-0",
            "team_position": null,
            "rating": 5.95,
            "lat": 39.9527237,
            "lng": -75.1635262
        },
        {
            "name": "Tibrawalla, Aryan",
            "team": "Franklin and Marshall College",
            "city": "",
            "country": "United States",
            "display_location": "United States",
            "record": "0-1",
            "team_position": null,
            "rating": 1.5,
            "lat": 39.7837304,
            "lng": -100.445882
        }
    ]
}