{
    "year": "2024",
    "players": [
        {
            "name": "Spizzirri, Nicholas",
            "team": "Pennsylvania",
            "city": "Greenwich",
            "country": "United States",
            "display_location": "Greenwich, United States",
            "record": "11-2",
            "team_position": 1,
            "rating": 7.03,
            "lat": 41.0264862,
            "lng": -73.6284598
        },
        {
            "name": "Khalil, Salman",
            "team": "Pennsylvania",
            "city": "",
            "country": "Egypt",
            "display_location": "Egypt",
            "record": "7-3",
            "team_position": 2,
            "rating": 7.12,
            "lat": 26.2540493,
            "lng": 29.2675469
        },
        {
            "name": "Hafez, Omar",
            "team": "Pennsylvania",
            "city": "",
            "country": "Egypt",
            "display_location": "Egypt",
            "record": "14-1",
            "team_position": 3,
            "rating": 6.94,
            "lat": 26.2540493,
            "lng": 29.2675469
        },
        {
            "name": "Kueh, Nathan Tze Bing",
            "team": "Pennsylvania",
            "city": "Miri",
            "country": "Malaysia",
            "display_location": "Miri, Malaysia",
            "record": "14-2",
            "team_position": 4,
            "rating": 6.81,
            "lat": 4.3940102,
            "lng": 113.9880199
        },
        {
            "name": "Dweek, Abdelrahman",
            "team": "Pennsylvania",
            "city": "Calgary",
            "country": "Canada",
            "display_location": "Calgary, Canada",
            "record": "10-4",
            "team_position": 5,
            "rating": 6.66,
            "lat": 51.0456064,
            "lng": -114.057541
        },
        {
            "name": "Chitturi, Varun",
            "team": "Pennsylvania",
            "city": "Fremont",
            "country": "United States",
            "display_location": "Fremont, United States",
            "record": "16-1",
            "team_position": 6,
            "rating": 6.69,
            "lat": 37.5482697,
            "lng": -121.988571
        },
        {
            "name": "Santry, Dana A.",
            "team": "Pennsylvania",
            "city": "Greenwich",
            "country": "United States",
            "display_location": "Greenwich, United States",
            "record": "13-1",
            "team_position": 7,
            "rating": 6.66,
            "lat": 41.0264862,
            "lng": -73.6284598
        },
        {
            "name": "Alber Baddour, Roger",
            "team": "Pennsylvania",
            "city": "Alexandria",
            "country": "Egypt",
            "display_location": "Alexandria, Egypt",
            "record": "1-3",
            "team_position": 8,
            "rating": 6.53,
            "lat": 31.1991806,
            "lng": 29.8951716
        },
        {
            "name": "Luthra, Rehan",
            "team": "Pennsylvania",
            "city": "Kirkland",
            "country": "United States",
            "display_location": "Kirkland, United States",
            "record": "9-6",
            "team_position": 9,
            "rating": 6.47,
            "lat": 47.6765382,
            "lng": -122.2070775
        },
        {
            "name": "Gambhir, Shaam P",
            "team": "Pennsylvania",
            "city": "Berwyn",
            "country": "United States",
            "display_location": "Berwyn, United States",
            "record": "5-4",
            "team_position": 10,
            "rating": 6.39,
            "lat": 41.8505874,
            "lng": -87.7936685
        },
        {
            "name": "Cui, Hao R",
            "team": "Pennsylvania",
            "city": "Baltimore",
            "country": "United States",
            "display_location": "Baltimore, United States",
            "record": "6-2",
            "team_position": 11,
            "rating": 6.36,
            "lat": 39.2908816,
            "lng": -76.610759
        },
        {
            "name": "Green, Oliver",
            "team": "Pennsylvania",
            "city": "Billericay",
            "country": "England",
            "display_location": "Billericay, England",
            "record": "6-0",
            "team_position": 12,
            "rating": 6.45,
            "lat": 51.6284395,
            "lng": 0.4218142
        },
        {
            "name": "Tse, Jat",
            "team": "Pennsylvania",
            "city": "",
            "country": "Hong Kong",
            "display_location": "Hong Kong",
            "record": "4-1",
            "team_position": 13,
            "rating": 6.28,
            "lat": 22.350627,
            "lng": 114.1849161
        },
        {
            "name": "Penman, Kyle",
            "team": "Pennsylvania",
            "city": "Stirling",
            "country": "Scotland",
            "display_location": "Stirling, Scotland",
            "record": "4-0",
            "team_position": 14,
            "rating": 6.46,
            "lat": 56.1181242,
            "lng": -3.9360012
        },
        {
            "name": "Mathias, Ben",
            "team": "Pennsylvania",
            "city": "Greenwich",
            "country": "United States",
            "display_location": "Greenwich, United States",
            "record": "3-1",
            "team_position": 15,
            "rating": 5.99,
            "lat": 41.0264862,
            "lng": -73.6284598
        },
        {
            "name": "Narvaez, Diego",
            "team": "Pennsylvania",
            "city": "",
            "country": "United States",
            "display_location": "United States",
            "record": "1-0",
            "team_position": 16,
            "rating": 5.48,
            "lat": 39.7837304,
            "lng": -100.445882
        },
        {
            "name": "Sharaf, Mohamed",
            "team": "Trinity College",
            "city": "",
            "country": "Egypt",
            "display_location": "Egypt",
            "record": "15-1",
            "team_position": 1,
            "rating": 7.12,
            "lat": 26.2540493,
            "lng": 29.2675469
        },
        {
            "name": "Eltokhy, Aly",
            "team": "Trinity College",
            "city": "Cairo",
            "country": "Egypt",
            "display_location": "Cairo, Egypt",
            "record": "9-3",
            "team_position": 2,
            "rating": 6.86,
            "lat": 30.0443879,
            "lng": 31.2357257
        },
        {
            "name": "Chuah, Joachim",
            "team": "Trinity College",
            "city": "Shah Alam",
            "country": "Malaysia",
            "display_location": "Shah Alam, Malaysia",
            "record": "10-3",
            "team_position": 3,
            "rating": 6.89,
            "lat": 3.0739429,
            "lng": 101.5185278
        },
        {
            "name": "Nassar, Abdelrahman",
            "team": "Trinity College",
            "city": "Cairo",
            "country": "Egypt",
            "display_location": "Cairo, Egypt",
            "record": "15-1",
            "team_position": 4,
            "rating": 6.8,
            "lat": 30.0443879,
            "lng": 31.2357257
        },
        {
            "name": "Takacs, Benedek",
            "team": "Trinity College",
            "city": "Szeged",
            "country": "Hungary",
            "display_location": "Szeged, Hungary",
            "record": "11-5",
            "team_position": 5,
            "rating": 6.67,
            "lat": 46.2546312,
            "lng": 20.1486016
        },
        {
            "name": "ElBorolossy, Marawan",
            "team": "Trinity College",
            "city": "",
            "country": "United States",
            "display_location": "United States",
            "record": "8-4",
            "team_position": 6,
            "rating": 6.57,
            "lat": 39.7837304,
            "lng": -100.445882
        },
        {
            "name": "Simon, Daniel",
            "team": "Trinity College",
            "city": "Budapest",
            "country": "Hungary",
            "display_location": "Budapest, Hungary",
            "record": "9-3",
            "team_position": 7,
            "rating": 6.39,
            "lat": 47.48138955,
            "lng": 19.14609412691246
        },
        {
            "name": "Cumberbatch, Khamal J.",
            "team": "Trinity College",
            "city": "Bridgetown",
            "country": "Barbados",
            "display_location": "Bridgetown, Barbados",
            "record": "8-5",
            "team_position": 8,
            "rating": 6.56,
            "lat": 13.0977832,
            "lng": -59.6184184
        },
        {
            "name": "Benthin, Julius",
            "team": "Trinity College",
            "city": "Hamburg",
            "country": "Germany",
            "display_location": "Hamburg, Germany",
            "record": "6-3",
            "team_position": 9,
            "rating": 6.49,
            "lat": 53.550341,
            "lng": 10.000654
        },
        {
            "name": "Ismail, Ahmed",
            "team": "Trinity College",
            "city": "Hartford",
            "country": "United States",
            "display_location": "Hartford, United States",
            "record": "9-1",
            "team_position": 10,
            "rating": 6.42,
            "lat": 41.764582,
            "lng": -72.6908547
        },
        {
            "name": "Izham, Danial",
            "team": "Trinity College",
            "city": "",
            "country": "United States",
            "display_location": "United States",
            "record": "7-2",
            "team_position": 11,
            "rating": 6.51,
            "lat": 39.7837304,
            "lng": -100.445882
        },
        {
            "name": "Restrepo, Mateo",
            "team": "Trinity College",
            "city": "Medellin Colombia",
            "country": "Colombia",
            "display_location": "Medellin Colombia, Colombia",
            "record": "11-3",
            "team_position": 12,
            "rating": 6.46,
            "lat": 6.2527703500000005,
            "lng": -75.57397479794734
        },
        {
            "name": "Shcherbakov, Dmytro",
            "team": "Trinity College",
            "city": "",
            "country": "Ukraine",
            "display_location": "Ukraine",
            "record": "8-0",
            "team_position": 13,
            "rating": 6.43,
            "lat": 49.4871968,
            "lng": 31.2718321
        },
        {
            "name": "Lim    , Andrik",
            "team": "Trinity College",
            "city": "",
            "country": "Malaysia",
            "display_location": "Malaysia",
            "record": "6-1",
            "team_position": 14,
            "rating": 6.23,
            "lat": 4.5693754,
            "lng": 102.2656823
        },
        {
            "name": "Adik, Advait",
            "team": "Trinity College",
            "city": "Mumbai",
            "country": "India",
            "display_location": "Mumbai, India",
            "record": "8-1",
            "team_position": 15,
            "rating": 6.18,
            "lat": 18.9733536,
            "lng": 72.82810491917377
        },
        {
            "name": "Jones, Will",
            "team": "Trinity College",
            "city": "Greenwich",
            "country": "United States",
            "display_location": "Greenwich, United States",
            "record": "3-2",
            "team_position": 15,
            "rating": 5.82,
            "lat": 41.0264862,
            "lng": -73.6284598
        },
        {
            "name": "Page, Bo C.",
            "team": "Trinity College",
            "city": "Wayne",
            "country": "United States",
            "display_location": "Wayne, United States",
            "record": "1-0",
            "team_position": 16,
            "rating": 5.78,
            "lat": 42.2682408,
            "lng": -83.2844172
        },
        {
            "name": "Culhane, Henry",
            "team": "Trinity College",
            "city": "Brooklyn",
            "country": "United States",
            "display_location": "Brooklyn, United States",
            "record": "4-1",
            "team_position": 17,
            "rating": 5.77,
            "lat": 40.6526006,
            "lng": -73.9497211
        },
        {
            "name": "Conigliaro, Douglas A",
            "team": "Trinity College",
            "city": "Dedham",
            "country": "United States",
            "display_location": "Dedham, United States",
            "record": "1-0",
            "team_position": 18,
            "rating": 5.43,
            "lat": 42.2489143,
            "lng": -71.1755732
        },
        {
            "name": "Roberts, W. Graham",
            "team": "Trinity College",
            "city": "Atlanta",
            "country": "United States",
            "display_location": "Atlanta, United States",
            "record": "1-0",
            "team_position": 19,
            "rating": 5.6,
            "lat": 33.7489924,
            "lng": -84.3902644
        },
        {
            "name": "Kovas, Reed",
            "team": "Trinity College",
            "city": "Lake Bluff",
            "country": "United States",
            "display_location": "Lake Bluff, United States",
            "record": "0-0",
            "team_position": 20,
            "rating": 5.01,
            "lat": 42.2789117,
            "lng": -87.8342362
        },
        {
            "name": "Johnston, Burnham",
            "team": "Trinity College",
            "city": "Bedford",
            "country": "United States",
            "display_location": "Bedford, United States",
            "record": "1-0",
            "team_position": null,
            "rating": 4.79,
            "lat": 40.0271453,
            "lng": -78.5237447
        },
        {
            "name": "Miller, Michael",
            "team": "Trinity College",
            "city": "Greenwich",
            "country": "United States",
            "display_location": "Greenwich, United States",
            "record": "1-0",
            "team_position": null,
            "rating": 4.5,
            "lat": 41.0264862,
            "lng": -73.6284598
        },
        {
            "name": "Neill, Christopher",
            "team": "Trinity College",
            "city": "Lake Forest",
            "country": "United States",
            "display_location": "Lake Forest, United States",
            "record": "0-0",
            "team_position": null,
            "rating": 5.27,
            "lat": 42.2586461,
            "lng": -87.8407055
        },
        {
            "name": "Elbarbary, Karim",
            "team": "Princeton",
            "city": "Cairo",
            "country": "Egypt",
            "display_location": "Cairo, Egypt",
            "record": "6-5",
            "team_position": 1,
            "rating": 6.91,
            "lat": 30.0443879,
            "lng": 31.2357257
        },
        {
            "name": "Robertson, Hollis",
            "team": "Princeton",
            "city": "Brooklyn",
            "country": "United States",
            "display_location": "Brooklyn, United States",
            "record": "7-5",
            "team_position": 2,
            "rating": 6.72,
            "lat": 40.6526006,
            "lng": -73.9497211
        },
        {
            "name": "Rosini, Thomas P",
            "team": "Princeton",
            "city": "Gladwyne",
            "country": "United States",
            "display_location": "Gladwyne, United States",
            "record": "9-4",
            "team_position": 3,
            "rating": 6.77,
            "lat": 40.0397304,
            "lng": -75.2791788
        },
        {
            "name": "Wael, Ahmed",
            "team": "Princeton",
            "city": "Cairo",
            "country": "Egypt",
            "display_location": "Cairo, Egypt",
            "record": "5-4",
            "team_position": 4,
            "rating": 6.54,
            "lat": 30.0443879,
            "lng": 31.2357257
        },
        {
            "name": "Cho, Alastair S",
            "team": "Princeton",
            "city": "Reisterstown",
            "country": "United States",
            "display_location": "Reisterstown, United States",
            "record": "10-3",
            "team_position": 5,
            "rating": 6.75,
            "lat": 39.4586723,
            "lng": -76.81853758947369
        },
        {
            "name": "Agarwal, Avi",
            "team": "Princeton",
            "city": "Monroe Township",
            "country": "United States",
            "display_location": "Monroe Township, United States",
            "record": "7-5",
            "team_position": 6,
            "rating": 6.61,
            "lat": 43.690677199999996,
            "lng": -85.74073206987296
        },
        {
            "name": "Khalil, Hassan",
            "team": "Princeton",
            "city": "Solihull",
            "country": "England",
            "display_location": "Solihull, England",
            "record": "9-2",
            "team_position": 7,
            "rating": 6.5,
            "lat": 52.4130189,
            "lng": -1.7768935
        },
        {
            "name": "Ahmed, Zain R",
            "team": "Princeton",
            "city": "Morgan Hill",
            "country": "United States",
            "display_location": "Morgan Hill, United States",
            "record": "7-4",
            "team_position": 8,
            "rating": 6.55,
            "lat": 37.130408,
            "lng": -121.6544974
        },
        {
            "name": "Lam, Gordon",
            "team": "Princeton",
            "city": "Lake Oswego",
            "country": "United States",
            "display_location": "Lake Oswego, United States",
            "record": "12-0",
            "team_position": 9,
            "rating": 6.63,
            "lat": 45.4206749,
            "lng": -122.670649
        },
        {
            "name": "Sosa, Federico",
            "team": "Princeton",
            "city": "Kent",
            "country": "Mexico",
            "display_location": "Kent, Mexico",
            "record": "4-4",
            "team_position": 10,
            "rating": 6.42,
            "lat": 19.4326296,
            "lng": -99.1331785
        },
        {
            "name": "Beeson, David",
            "team": "Princeton",
            "city": "Riverside",
            "country": "United States",
            "display_location": "Riverside, United States",
            "record": "3-2",
            "team_position": 11,
            "rating": 6.47,
            "lat": 33.9824949,
            "lng": -117.374238
        },
        {
            "name": "Mukherjee, Arin J.",
            "team": "Princeton",
            "city": "Princeton",
            "country": "United States",
            "display_location": "Princeton, United States",
            "record": "3-1",
            "team_position": 12,
            "rating": 6.35,
            "lat": 40.3496953,
            "lng": -74.6597376
        },
        {
            "name": "Ezratty, William",
            "team": "Princeton",
            "city": "Greenwich",
            "country": "United States",
            "display_location": "Greenwich, United States",
            "record": "1-2",
            "team_position": 13,
            "rating": 6.23,
            "lat": 41.0264862,
            "lng": -73.6284598
        },
        {
            "name": "Kontulis, James",
            "team": "Princeton",
            "city": "New Canaan",
            "country": "United States",
            "display_location": "New Canaan, United States",
            "record": "0-0",
            "team_position": 14,
            "rating": 5.55,
            "lat": 41.146763,
            "lng": -73.4948446
        },
        {
            "name": "Chiang, Sam H",
            "team": "Princeton",
            "city": "New York",
            "country": "United States",
            "display_location": "New York, United States",
            "record": "0-0",
            "team_position": 15,
            "rating": 5.09,
            "lat": 40.7127281,
            "lng": -74.0060152
        },
        {
            "name": "Khatri, Maaz",
            "team": "Princeton",
            "city": "Dubai",
            "country": "Australia",
            "display_location": "Dubai, Australia",
            "record": "0-0",
            "team_position": null,
            "rating": 6.47,
            "lat": 25.231477499999997,
            "lng": 55.19435079998544
        },
        {
            "name": "Menin, Mason",
            "team": "Princeton",
            "city": "New York",
            "country": "United States",
            "display_location": "New York, United States",
            "record": "1-0",
            "team_position": null,
            "rating": 6.16,
            "lat": 40.7127281,
            "lng": -74.0060152
        },
        {
            "name": "Rosini, Justin M",
            "team": "Princeton",
            "city": "Gladwyne",
            "country": "United States",
            "display_location": "Gladwyne, United States",
            "record": "2-1",
            "team_position": null,
            "rating": 5.88,
            "lat": 40.0397304,
            "lng": -75.2791788
        },
        {
            "name": "Yee Xian, Siow",
            "team": "Yale",
            "city": "Melaka",
            "country": "Malaysia",
            "display_location": "Melaka, Malaysia",
            "record": "9-4",
            "team_position": 1,
            "rating": 6.88,
            "lat": 2.3293744,
            "lng": 102.2880962
        },
        {
            "name": "Bhagwati, Arav V.",
            "team": "Yale",
            "city": "Hillsborough",
            "country": "United States",
            "display_location": "Hillsborough, United States",
            "record": "7-6",
            "team_position": 2,
            "rating": 6.69,
            "lat": 27.9184543,
            "lng": -82.3488057
        },
        {
            "name": "Orr, Maxwell E",
            "team": "Yale",
            "city": "Haverford",
            "country": "United States",
            "display_location": "Haverford, United States",
            "record": "5-5",
            "team_position": 3,
            "rating": 6.78,
            "lat": 40.0131672,
            "lng": -75.2943516
        },
        {
            "name": "Forster, Max",
            "team": "Yale",
            "city": "",
            "country": "England",
            "display_location": "England",
            "record": "7-6",
            "team_position": 4,
            "rating": 6.67,
            "lat": 52.5310214,
            "lng": -1.2649062
        },
        {
            "name": "Carney, Tad E.",
            "team": "Yale",
            "city": "New Canaan",
            "country": "United States",
            "display_location": "New Canaan, United States",
            "record": "11-2",
            "team_position": 5,
            "rating": 6.88,
            "lat": 41.146763,
            "lng": -73.4948446
        },
        {
            "name": "Sutton, Lachlan",
            "team": "Yale",
            "city": "Cambridge",
            "country": "United States",
            "display_location": "Cambridge, United States",
            "record": "10-4",
            "team_position": 6,
            "rating": 6.66,
            "lat": 42.3656347,
            "lng": -71.1040018
        },
        {
            "name": "Ismail, Nikhil",
            "team": "Yale",
            "city": "Toronto",
            "country": "Canada",
            "display_location": "Toronto, Canada",
            "record": "13-1",
            "team_position": 7,
            "rating": 6.66,
            "lat": 43.6534817,
            "lng": -79.3839347
        },
        {
            "name": "Wurts, Merritt W.",
            "team": "Yale",
            "city": "Wyndmoor",
            "country": "United States",
            "display_location": "Wyndmoor, United States",
            "record": "7-6",
            "team_position": 8,
            "rating": 6.43,
            "lat": 40.0853435,
            "lng": -75.19402070907555
        },
        {
            "name": "Leonard, Brian F.",
            "team": "Yale",
            "city": "Harrison",
            "country": "United States",
            "display_location": "Harrison, United States",
            "record": "11-3",
            "team_position": 9,
            "rating": 6.55,
            "lat": 32.5233959,
            "lng": -94.3982158
        },
        {
            "name": "Burde, Jed",
            "team": "Yale",
            "city": "Bala Cynwyd",
            "country": "United States",
            "display_location": "Bala Cynwyd, United States",
            "record": "3-2",
            "team_position": 10,
            "rating": 6.37,
            "lat": 40.0076125,
            "lng": -75.2340695
        },
        {
            "name": "O'Flynn, Jack",
            "team": "Yale",
            "city": "",
            "country": "England",
            "display_location": "England",
            "record": "5-0",
            "team_position": 11,
            "rating": 6.31,
            "lat": 52.5310214,
            "lng": -1.2649062
        },
        {
            "name": "Clayton, Taylor B.",
            "team": "Yale",
            "city": "Greenwich",
            "country": "United States",
            "display_location": "Greenwich, United States",
            "record": "2-0",
            "team_position": 12,
            "rating": 6.05,
            "lat": 41.0264862,
            "lng": -73.6284598
        },
        {
            "name": "Mehta, Shreyas N",
            "team": "Yale",
            "city": "Mumbai",
            "country": "India",
            "display_location": "Mumbai, India",
            "record": "2-0",
            "team_position": 13,
            "rating": 6.02,
            "lat": 18.9733536,
            "lng": 72.82810491917377
        },
        {
            "name": "Eun, Bennett",
            "team": "Yale",
            "city": "New York",
            "country": "United States",
            "display_location": "New York, United States",
            "record": "1-0",
            "team_position": 14,
            "rating": 6.28,
            "lat": 40.7127281,
            "lng": -74.0060152
        },
        {
            "name": "Costales, David",
            "team": "Harvard",
            "city": "Kent",
            "country": "United States",
            "display_location": "Kent, United States",
            "record": "9-5",
            "team_position": 1,
            "rating": 6.92,
            "lat": 33.1665316,
            "lng": -100.7846477
        },
        {
            "name": "Azzam, Omar",
            "team": "Harvard",
            "city": "Cairo",
            "country": "Egypt",
            "display_location": "Cairo, Egypt",
            "record": "9-5",
            "team_position": 2,
            "rating": 6.63,
            "lat": 30.0443879,
            "lng": 31.2357257
        },
        {
            "name": "Burstein, Ido",
            "team": "Harvard",
            "city": "",
            "country": "Israel",
            "display_location": "Israel",
            "record": "6-6",
            "team_position": 3,
            "rating": 6.71,
            "lat": 30.8124247,
            "lng": 34.8594762
        },
        {
            "name": "Harms, Tate",
            "team": "Harvard",
            "city": "",
            "country": "Switzerland",
            "display_location": "Switzerland",
            "record": "14-2",
            "team_position": 4,
            "rating": 6.76,
            "lat": 46.7985624,
            "lng": 8.2319736
        },
        {
            "name": "Gilevskiy, Denis",
            "team": "Harvard",
            "city": "",
            "country": "Ireland",
            "display_location": "Ireland",
            "record": "13-3",
            "team_position": 5,
            "rating": 6.77,
            "lat": 52.865196,
            "lng": -7.9794599
        },
        {
            "name": "Rotzoll, Liam",
            "team": "Harvard",
            "city": "Bethesda",
            "country": "United States",
            "display_location": "Bethesda, United States",
            "record": "8-6",
            "team_position": 6,
            "rating": 6.54,
            "lat": 38.98127255,
            "lng": -77.12335871396549
        },
        {
            "name": "Lin, Jacob",
            "team": "Harvard",
            "city": "Richmond",
            "country": "Canada",
            "display_location": "Richmond, Canada",
            "record": "10-5",
            "team_position": 7,
            "rating": 6.51,
            "lat": 49.163168,
            "lng": -123.137414
        },
        {
            "name": "Joshi, Neel",
            "team": "Harvard",
            "city": "",
            "country": "India",
            "display_location": "India",
            "record": "11-5",
            "team_position": 8,
            "rating": 6.51,
            "lat": 22.3511148,
            "lng": 78.6677428
        },
        {
            "name": "Shah, Ishant",
            "team": "Harvard",
            "city": "Georgetown",
            "country": "Malaysia",
            "display_location": "Georgetown, Malaysia",
            "record": "7-4",
            "team_position": 9,
            "rating": 6.39,
            "lat": 6.1194695,
            "lng": 100.3892994
        },
        {
            "name": "Stoltz, Conner",
            "team": "Harvard",
            "city": "Bronxville",
            "country": "United States",
            "display_location": "Bronxville, United States",
            "record": "6-4",
            "team_position": 10,
            "rating": 6.29,
            "lat": 40.9381544,
            "lng": -73.8320784
        },
        {
            "name": "Lee, Marcus J",
            "team": "Harvard",
            "city": "Greenwich",
            "country": "United States",
            "display_location": "Greenwich, United States",
            "record": "5-2",
            "team_position": 11,
            "rating": 5.99,
            "lat": 41.0264862,
            "lng": -73.6284598
        },
        {
            "name": "Baskir, Zach",
            "team": "Harvard",
            "city": "Cape Town",
            "country": "South Africa",
            "display_location": "Cape Town, South Africa",
            "record": "3-1",
            "team_position": null,
            "rating": 5.49,
            "lat": -33.9288301,
            "lng": 18.4172197
        },
        {
            "name": "Murray, Louis",
            "team": "Harvard",
            "city": "",
            "country": "England",
            "display_location": "England",
            "record": "1-0",
            "team_position": null,
            "rating": 6.12,
            "lat": 52.5310214,
            "lng": -1.2649062
        },
        {
            "name": "Smith, Franklyn",
            "team": "Columbia",
            "city": "Brighton",
            "country": "England",
            "display_location": "Brighton, England",
            "record": "3-12",
            "team_position": 1,
            "rating": 6.56,
            "lat": 50.8214626,
            "lng": -0.1400561
        },
        {
            "name": "Castiaux, Harold",
            "team": "Columbia",
            "city": "Wavre La Zone",
            "country": "Belgium",
            "display_location": "Wavre La Zone, Belgium",
            "record": "6-10",
            "team_position": 2,
            "rating": 6.63,
            "lat": 50.6402809,
            "lng": 4.6667145
        },
        {
            "name": "Bawa, Shaurya",
            "team": "Columbia",
            "city": "New Delhi",
            "country": "India",
            "display_location": "New Delhi, India",
            "record": "8-7",
            "team_position": 3,
            "rating": 6.61,
            "lat": 28.6138954,
            "lng": 77.2090057
        },
        {
            "name": "Godde, Laszlo",
            "team": "Columbia",
            "city": "La Rochelle",
            "country": "France",
            "display_location": "La Rochelle, France",
            "record": "9-6",
            "team_position": 4,
            "rating": 6.46,
            "lat": 46.1591126,
            "lng": -1.1520434
        },
        {
            "name": "Bulbulia,  Jacob",
            "team": "Columbia",
            "city": "Short Hills",
            "country": "United States",
            "display_location": "Short Hills, United States",
            "record": "6-7",
            "team_position": 5,
            "rating": 6.39,
            "lat": 40.7478786,
            "lng": -74.3254271
        },
        {
            "name": "Nam, Zach",
            "team": "Columbia",
            "city": "New York",
            "country": "United States",
            "display_location": "New York, United States",
            "record": "6-6",
            "team_position": 6,
            "rating": 6.41,
            "lat": 40.7127281,
            "lng": -74.0060152
        },
        {
            "name": "Ambani, Paarth",
            "team": "Columbia",
            "city": "Mumbai",
            "country": "India",
            "display_location": "Mumbai, India",
            "record": "12-3",
            "team_position": 7,
            "rating": 6.51,
            "lat": 18.9733536,
            "lng": 72.82810491917377
        },
        {
            "name": "Rau, Rutvik",
            "team": "Columbia",
            "city": "Mumbai",
            "country": "India",
            "display_location": "Mumbai, India",
            "record": "11-5",
            "team_position": 8,
            "rating": 6.39,
            "lat": 18.9733536,
            "lng": 72.82810491917377
        },
        {
            "name": "Goad, Adam",
            "team": "Columbia",
            "city": "Carlisle",
            "country": "England",
            "display_location": "Carlisle, England",
            "record": "12-1",
            "team_position": 9,
            "rating": 6.49,
            "lat": 54.8948478,
            "lng": -2.9362311
        },
        {
            "name": "Soltanian, Thomas R",
            "team": "Columbia",
            "city": "Hunt Valley",
            "country": "United States",
            "display_location": "Hunt Valley, United States",
            "record": "3-3",
            "team_position": 10,
            "rating": 6.33,
            "lat": 39.4962709,
            "lng": -76.6542571
        },
        {
            "name": "Chen, Ryan A.",
            "team": "Columbia",
            "city": "Bedford",
            "country": "United States",
            "display_location": "Bedford, United States",
            "record": "3-2",
            "team_position": 11,
            "rating": 6.29,
            "lat": 40.0271453,
            "lng": -78.5237447
        },
        {
            "name": "De La Mora, Gonzalo",
            "team": "Columbia",
            "city": "New Haven",
            "country": "United States",
            "display_location": "New Haven, United States",
            "record": "1-2",
            "team_position": null,
            "rating": 5.96,
            "lat": 41.3082138,
            "lng": -72.9250518
        },
        {
            "name": "Jung, Andrew",
            "team": "Columbia",
            "city": "San Diego",
            "country": "United States",
            "display_location": "San Diego, United States",
            "record": "0-0",
            "team_position": null,
            "rating": 5.78,
            "lat": 32.7174202,
            "lng": -117.162772
        },
        {
            "name": "Morkel, Adam",
            "team": "Columbia",
            "city": "",
            "country": "South Africa",
            "display_location": "South Africa",
            "record": "0-0",
            "team_position": null,
            "rating": 5.86,
            "lat": -28.8166236,
            "lng": 24.991639
        },
        {
            "name": "Saxena, Sameer",
            "team": "Columbia",
            "city": "Newtown Square",
            "country": "United States",
            "display_location": "Newtown Square, United States",
            "record": "3-2",
            "team_position": null,
            "rating": 6.18,
            "lat": 39.9868117,
            "lng": -75.4007633
        },
        {
            "name": "Yuzpe, Alex",
            "team": "Columbia",
            "city": "Toronto",
            "country": "Canada",
            "display_location": "Toronto, Canada",
            "record": "0-0",
            "team_position": null,
            "rating": 6.07,
            "lat": 43.6534817,
            "lng": -79.3839347
        }
    ]
}